City_ID,City,Lat,Lng,Max Temp,Humidity,Cloudiness,Wind Speed,Country,Date
0,mataura,-46.1927,168.8643,49.37,86,66,5.23,NZ,1649507113
1,gedo,9.0167,37.45,80.37,16,20,5.44,ET,1649507113
2,deputatskiy,69.3,139.9,-11.36,100,100,3.06,RU,1649507113
3,cayambe,0.05,-78.1333,49.26,86,100,3.11,EC,1649507113
4,moba,33.2288,105.0179,58.37,56,48,4.79,CN,1649507113
5,hithadhoo,-0.6,73.0833,84.11,66,96,8.93,MV,1649507113
6,kuching,1.55,110.3333,73.62,100,40,5.99,MY,1649507113
7,mar del plata,-38.0023,-57.5575,67.08,94,100,7.0,AR,1649506863
8,geraldton,-28.7667,114.6,64.81,72,25,6.91,AU,1649507114
9,hualmay,-11.0964,-77.6139,68.09,83,100,7.23,PE,1649507114
10,acapulco,16.8634,-99.8901,71.42,88,40,2.3,MX,1649507073
11,bluff,-46.6,168.3333,57.11,79,61,20.83,NZ,1649507114
12,sao bento do sul,-26.2503,-49.3786,66.18,97,74,1.77,BR,1649507114
13,hermanus,-34.4187,19.2345,72.81,43,0,21.39,ZA,1649506926
14,yellowknife,62.456,-114.3525,23.56,81,75,20.71,CA,1649507114
15,butaritari,3.0707,172.7902,80.51,81,90,13.09,KI,1649507115
16,albany,42.6001,-73.9662,43.65,91,100,0.76,US,1649507115
17,scarborough,54.2797,-0.4044,47.77,55,82,3.0,GB,1649507115
18,winona,43.9666,-91.7668,29.5,73,0,3.44,US,1649507115
19,new norfolk,-42.7826,147.0587,67.5,53,9,3.4,AU,1649507115
20,punta arenas,-53.15,-70.9167,41.11,93,100,6.91,CL,1649507115
21,giyani,-23.3025,30.7187,77.05,49,100,12.64,ZA,1649507115
22,airai,-8.9266,125.4092,59.94,92,78,2.93,TL,1649507115
23,busselton,-33.65,115.3333,59.4,53,88,5.23,AU,1649507115
24,hilo,19.7297,-155.09,69.53,83,40,3.44,US,1649507116
25,laguna,38.421,-121.4238,62.73,41,0,11.5,US,1649507116
26,puerto madryn,-42.7692,-65.0385,59.72,87,95,19.37,AR,1649507116
27,chuy,-33.6971,-53.4616,68.13,80,15,2.8,UY,1649507116
28,richards bay,-28.783,32.0377,68.49,80,100,8.77,ZA,1649507116
29,onguday,50.75,86.15,34.34,75,50,6.08,RU,1649507116
30,shahrud,36.4182,54.9763,77.25,13,100,15.12,IR,1649507116
31,olafsvik,64.8945,-23.7142,33.24,96,100,25.32,IS,1649507116
32,jamestown,42.097,-79.2353,38.52,76,100,10.36,US,1649507116
33,adrar,20.5022,-10.0711,89.82,7,0,6.98,MR,1649507116
34,georgetown,5.4112,100.3354,83.95,88,20,5.75,MY,1649507103
35,batagay-alyta,67.8006,130.4114,4.3,95,100,4.27,RU,1649507117
36,kapaa,22.0752,-159.319,73.72,84,100,14.97,US,1649507117
37,bethel,41.3712,-73.414,47.75,89,100,0.0,US,1649507117
38,buzmeyin,38.0507,58.2056,89.33,17,100,4.61,TM,1649507117
39,port alfred,-33.5906,26.891,66.18,79,99,5.01,ZA,1649506957
40,xinqing,48.2333,129.5,28.44,96,42,2.48,CN,1649507117
41,castro,-24.7911,-50.0119,67.46,86,100,1.61,BR,1649507117
42,san francisco,37.7749,-122.4194,52.32,79,0,12.66,US,1649507117
43,torbay,47.6666,-52.7314,32.76,86,100,14.97,CA,1649507117
44,codrington,-38.2667,141.9667,68.54,60,62,10.49,AU,1649507118
45,hobart,-42.8794,147.3294,67.86,75,75,13.8,AU,1649507118
46,peniche,39.3558,-9.3811,63.09,86,94,10.13,PT,1649507118
47,rikitea,-23.1203,-134.9692,78.84,74,0,16.33,PF,1649507087
48,muzhi,65.3667,64.6667,23.95,91,95,8.14,RU,1649507118
49,saint george,37.1041,-113.5841,52.39,24,0,3.44,US,1649507118
50,malaya serdoba,52.4661,44.9512,44.78,99,100,3.53,RU,1649507118
51,lusaka,-15.4067,28.2871,68.83,74,99,9.22,ZM,1649507118
52,kahului,20.8947,-156.47,74.84,76,0,7.0,US,1649507118
53,shatki,55.1887,44.1249,43.75,95,100,7.96,RU,1649507118
54,ushuaia,-54.8,-68.3,37.06,81,0,0.0,AR,1649507118
55,jacqueville,5.2052,-4.4146,82.17,81,83,9.22,CI,1649507119
56,aksay,47.26,39.87,62.82,51,16,11.01,RU,1649507119
57,harper,4.375,-7.7169,87.87,64,99,6.6,LR,1649507119
58,safaga,26.7292,33.9365,82.26,42,5,16.71,EG,1649507119
59,svetlyy,54.675,20.1347,42.96,64,55,20.13,RU,1649507119
60,labuan,5.2767,115.2417,75.56,100,40,3.44,MY,1649507119
61,tubuala,9.5167,-79.0333,78.53,90,98,16.17,PA,1649507120
62,bredasdorp,-34.5322,20.0403,69.35,50,0,24.32,ZA,1649507120
63,alma,48.5501,-71.6491,38.41,94,97,5.39,CA,1649507120
64,puerto ayora,-0.7393,-90.3518,76.64,86,100,3.6,EC,1649507120
65,tiksi,71.6872,128.8694,-8.09,100,98,4.07,RU,1649507120
66,atuona,-9.8,-139.0333,79.25,79,13,21.27,PF,1649507120
67,cape town,-33.9258,18.4232,80.28,38,0,10.0,ZA,1649507024
68,naze,28.3667,129.4833,65.32,75,1,10.22,JP,1649507120
69,lebu,-37.6167,-73.65,51.89,83,72,9.17,CL,1649507121
70,tagusao,9.1924,117.8141,79.07,83,81,1.54,PH,1649507121
71,acari,-15.4311,-74.6158,70.79,78,94,1.45,PE,1649507121
72,bandarbeyla,9.4942,50.8122,84.58,64,74,10.27,SO,1649507121
73,kodiak,57.79,-152.4072,27.91,46,0,8.05,US,1649507121
74,nuuk,64.1835,-51.7216,23.61,80,75,8.05,GL,1649507121
75,qaanaaq,77.484,-69.3632,-4.74,68,6,6.62,GL,1649507121
76,zhigalovo,54.8097,105.1578,31.01,91,100,2.51,RU,1649507121
77,ponta do sol,32.6667,-17.1,67.71,67,21,4.79,PT,1649507121
78,aklavik,68.2191,-135.0107,2.55,80,68,18.9,CA,1649507121
79,vaini,-21.2,-175.2,75.36,100,40,1.14,TO,1649507122
80,poum,-20.2333,164.0167,80.33,81,69,11.3,NC,1649507122
81,barrow,71.2906,-156.7887,-11.18,77,0,4.61,US,1649506918
82,dikson,73.5069,80.5464,9.91,92,100,4.29,RU,1649507122
83,east london,-33.0153,27.9116,63.54,94,75,9.22,ZA,1649507122
84,pevek,69.7008,170.3133,-11.79,98,100,7.9,RU,1649507122
85,namatanai,-3.6667,152.4333,79.7,80,72,4.59,PG,1649506911
86,cherskiy,68.75,161.3,-4.27,98,100,8.05,RU,1649507123
87,tuktoyaktuk,69.4541,-133.0374,4.84,93,100,19.08,CA,1649507123
88,victoria,22.2855,114.1577,75.38,66,0,8.01,HK,1649507039
89,aden,12.7794,45.0367,83.26,68,33,11.97,YE,1649506903
90,utraula,27.3167,82.4167,102.63,9,0,6.87,IN,1649507123
91,saint-philippe,-21.3585,55.7679,82.22,81,43,11.01,RE,1649507123
92,primorka,47.2836,39.0625,57.11,57,36,15.59,RU,1649507123
93,markova,48.6758,24.4138,58.46,55,96,9.01,UA,1649507123
94,santa fe,-31.6333,-60.7,72.0,76,0,5.01,AR,1649507123
95,khatanga,71.9667,102.5,11.08,96,85,7.54,RU,1649507124
96,mahebourg,-20.4081,57.7,84.49,65,20,9.22,MU,1649507124
97,madang,-5.2246,145.7966,76.12,93,100,0.47,PG,1649507124
98,pucallpa,-8.3791,-74.5539,73.81,97,100,0.58,PE,1649507124
99,fairbanks,64.8378,-147.7164,0.01,60,0,0.0,US,1649507124
100,wahpeton,46.2652,-96.6059,30.22,100,0,4.61,US,1649507124
101,salalah,17.0151,54.0924,87.89,58,0,11.5,OM,1649507041
102,faanui,-16.4833,-151.75,82.6,71,100,17.56,PF,1649507124
103,cidreira,-30.1811,-50.2056,70.48,87,95,11.07,BR,1649507124
104,ancud,-41.8697,-73.8203,53.22,91,100,9.4,CL,1649507124
105,lorengau,-2.0226,147.2712,79.07,83,100,4.68,PG,1649507125
106,avarua,-21.2078,-159.775,82.45,78,40,12.66,CK,1649506980
107,san quintin,30.4833,-115.95,62.74,64,62,2.95,MX,1649506878
108,the valley,18.217,-63.0578,81.1,69,75,16.11,AI,1649507125
109,vestmannaeyjar,63.4427,-20.2734,38.39,75,75,25.32,IS,1649507125
110,santa cruz,-17.8,-63.1667,78.85,78,75,14.97,BO,1649506826
111,biltine,14.5333,20.9167,106.14,6,22,12.91,TD,1649507125
112,prince albert,53.2001,-105.7677,37.35,75,100,5.75,CA,1649507125
113,glace bay,46.1969,-59.957,41.27,97,100,16.11,CA,1649506928
114,bubaque,11.2833,-15.8333,75.99,77,50,6.17,GW,1649507125
115,san vicente,-26.6167,-54.1333,66.65,84,19,1.07,AR,1649506878
116,labrea,-7.2586,-64.7981,75.02,97,100,2.26,BR,1649507126
117,bukachacha,52.9833,116.9167,36.68,49,100,9.75,RU,1649507126
118,ribeira grande,38.5167,-28.7,57.6,72,75,24.16,PT,1649507126
119,caravelas,-17.7125,-39.2481,83.71,66,47,2.42,BR,1649507126
120,tasiilaq,65.6145,-37.6368,30.36,91,100,0.45,GL,1649507126
121,grindavik,63.8424,-22.4338,35.55,93,100,24.16,IS,1649507126
122,kruisfontein,-34.0033,24.7314,64.89,74,90,13.31,ZA,1649507126
123,samur,41.8253,48.486,59.11,63,91,11.41,RU,1649507126
124,nanortalik,60.1432,-45.2371,29.61,75,14,2.44,GL,1649507126
125,maragogi,-9.0122,-35.2225,82.53,76,91,9.69,BR,1649507126
126,grand gaube,-20.0064,57.6608,84.6,72,23,5.99,MU,1649507126
127,dawei,14.0833,98.2,82.47,69,15,5.28,MM,1649507127
128,verkhnetulomskiy,68.6073,31.7962,37.53,100,100,11.74,RU,1649507127
129,banda aceh,5.5577,95.3222,82.35,74,58,4.56,ID,1649507127
130,bagli,22.65,76.35,102.9,8,6,9.55,IN,1649507127
131,tanga,-5.0667,39.1,89.13,56,1,11.34,TZ,1649507127
132,alofi,-19.0595,-169.9187,76.89,94,53,3.44,NU,1649506957
133,kondinskoye,59.6481,67.41,32.09,81,45,3.27,RU,1649507127
134,lanigan,51.8501,-105.0344,42.69,86,100,8.46,CA,1649507128
135,praia da vitoria,38.7333,-27.0667,59.25,82,40,24.16,PT,1649507128
136,aizpute,56.7167,21.6,42.03,41,40,16.58,LV,1649507128
137,huarmey,-10.0681,-78.1522,68.76,83,99,5.57,PE,1649507128
138,lasa,46.6166,10.7002,48.69,65,90,9.93,IT,1649507128
139,mantenopolis,-18.8625,-41.1228,76.91,73,47,2.59,BR,1649507128
140,port hardy,50.6996,-127.4199,41.0,87,75,5.75,CA,1649507128
141,ostrovnoy,68.0531,39.5131,34.2,98,100,22.12,RU,1649507128
142,maria aurora,15.7967,121.4737,75.2,97,71,2.57,PH,1649507128
143,morshansk,53.4435,41.8107,50.72,83,98,4.88,RU,1649507128
144,la ronge,55.1001,-105.2842,32.25,74,75,4.61,CA,1649507128
145,cayenne,4.9333,-52.3333,82.44,1,75,5.75,GF,1649507129
146,pryozerne,45.2698,36.3303,55.44,73,50,18.92,UA,1649507129
147,buala,-8.145,159.5921,80.47,80,36,5.44,SB,1649507129
148,bograd,54.2344,90.8328,36.16,48,96,15.59,RU,1649507129
149,kang,-23.6752,22.7876,64.6,79,100,16.75,BW,1649507129
150,karratha,-20.7377,116.8463,87.33,43,10,13.98,AU,1649507069
151,arraial do cabo,-22.9661,-42.0278,78.76,83,75,8.05,BR,1649507129
152,fukue,32.6881,128.8419,63.0,77,0,5.48,JP,1649507129
153,komsomolskiy,40.4272,71.7189,81.32,28,75,9.22,UZ,1649507130
154,santa rosa,14.3122,121.1114,84.11,74,77,10.29,PH,1649507130
155,chokurdakh,70.6333,147.9167,-24.47,100,21,5.08,RU,1649507130
156,kindersley,51.4668,-109.1682,42.82,65,100,23.02,CA,1649507130
157,hasaki,35.7333,140.8333,57.6,77,0,19.06,JP,1649507130
158,conceicao do rio verde,-21.8808,-45.0853,72.41,85,91,1.66,BR,1649507130
159,itaituba,-4.2761,-55.9836,80.76,89,75,4.61,BR,1649507130
160,conceicao do araguaia,-8.2578,-49.2647,79.84,81,73,1.68,BR,1649507130
161,saint-paul,-21.0096,55.2707,83.35,78,33,1.5,RE,1649507130
162,touros,-5.1989,-35.4608,85.91,63,42,16.44,BR,1649507131
163,dzhebariki-khaya,62.2167,135.8,19.47,96,100,2.53,RU,1649507131
164,port elizabeth,-33.918,25.5701,67.1,79,20,14.97,ZA,1649507076
165,worthington,40.0931,-83.018,37.45,93,100,9.22,US,1649507131
166,ilulissat,69.2167,-51.1,10.42,85,75,11.5,GL,1649507131
167,katsuura,35.1333,140.3,62.85,80,0,19.84,JP,1649507131
168,mutis,6.2262,-77.4044,77.47,88,100,3.96,CO,1649507131
169,lahaina,20.8783,-156.6825,74.8,81,20,9.35,US,1649507131
170,payo,-3.7508,103.6372,74.08,96,98,1.68,ID,1649507131
171,pemangkat,1.1667,108.9667,79.93,80,97,5.26,ID,1649507131
172,sungaipenuh,-2.0833,101.3833,66.69,93,95,0.63,ID,1649507131
173,kingaroy,-26.5333,151.8333,66.24,94,100,9.22,AU,1649507132
174,nome,64.5011,-165.4064,21.27,93,100,10.36,US,1649507132
175,hofn,64.2539,-15.2082,32.0,43,51,2.44,IS,1649507132
176,shache,38.4167,77.2406,82.92,8,100,7.67,CN,1649507132
177,recarei,41.1536,-8.4118,68.18,65,94,1.01,PT,1649507132
178,elbistan,38.2059,37.1983,63.12,30,4,2.39,TR,1649507132
179,ndele,8.4109,20.6473,106.59,16,22,0.63,CF,1649507132
180,xining,36.6167,101.7667,60.49,7,6,1.57,CN,1649507132
181,denpasar,-8.65,115.2167,78.46,94,20,2.3,ID,1649506855
182,port hedland,-20.3167,118.5667,84.25,65,100,11.5,AU,1649507132
183,jiblah,13.9216,44.1467,77.47,22,2,9.19,YE,1649507132
184,tura,25.5198,90.2201,76.59,73,41,5.28,IN,1649507132
185,margate,51.3813,1.3862,52.3,48,13,7.0,GB,1649507133
186,celestun,20.8667,-90.4,70.81,56,49,13.67,MX,1649507133
187,ambunti,-4.2365,142.8448,74.95,99,96,2.84,PG,1649507133
188,nampula,-15.1165,39.2666,76.8,78,67,3.49,MZ,1649506979
189,saint-augustin,51.226,-58.6502,30.97,97,100,16.91,CA,1649507133
190,baracoa,20.3467,-74.4958,77.0,80,64,0.81,CU,1649507133
191,samarai,-10.6167,150.6667,82.42,79,97,14.56,PG,1649507133
192,agutaya,11.148,120.9417,82.09,78,84,9.51,PH,1649507133
193,gornopravdinsk,60.05,69.9,29.66,75,79,3.96,RU,1649507134
194,gohpur,26.8833,93.6333,77.14,63,40,4.41,IN,1649507134
195,saskylakh,71.9167,114.0833,-4.79,97,14,3.91,RU,1649507134
196,tuatapere,-46.1333,167.6833,47.84,89,58,5.03,NZ,1649507134
197,hambantota,6.1241,81.1185,80.94,89,75,8.05,LK,1649507134
198,venezuela,8.0,-66.0,81.75,56,74,21.99,VE,1649507134
199,dali,25.7,100.1833,62.01,55,73,5.41,CN,1649507134
200,laje,-10.1833,-40.9667,78.1,54,23,8.48,BR,1649507134
201,garden city,42.3256,-83.331,34.9,83,75,10.36,US,1649507129
202,rovaniemi,66.5,25.7167,33.21,100,100,5.75,FI,1649506899
203,hirara,24.8,125.2833,72.39,77,58,15.03,JP,1649507135
204,priyutnoye,46.1011,43.5072,63.39,43,49,20.2,RU,1649507135
205,cockeysville,39.4812,-76.6439,46.22,92,100,3.0,US,1649507135
206,cabo san lucas,22.8909,-109.9124,64.51,86,0,5.99,MX,1649507135
207,upernavik,72.7868,-56.1549,4.21,94,100,7.94,GL,1649507135
208,carnarvon,-24.8667,113.6333,75.27,64,0,16.11,AU,1649507135
209,kingston,17.997,-76.7936,78.24,77,20,5.75,JM,1649506964
210,edd,13.9297,41.6925,94.14,38,0,24.52,ER,1649507135
211,camargo,27.6667,-105.1667,58.19,25,91,6.96,MX,1649507136
212,buchanan,5.8808,-10.0467,86.18,68,99,8.28,LR,1649507136
213,nelson bay,-32.7167,152.15,69.01,88,87,11.45,AU,1649507136
214,high rock,26.6208,-78.2833,68.02,58,97,18.81,BS,1649507136
215,luangwa,-15.6167,30.4167,84.7,50,82,8.93,ZM,1649507136
216,vao,-22.6667,167.4833,77.67,84,57,24.18,NC,1649507136
217,puerto berrio,6.4916,-74.4033,74.1,98,100,0.85,CO,1649507136
218,muroto,33.2833,134.15,63.37,74,0,5.35,JP,1649507136
219,port keats,-14.25,129.55,80.35,69,41,2.06,AU,1649507136
220,palmer,42.1584,-72.3287,46.92,85,100,6.91,US,1649507136
221,forestville,38.8451,-76.875,47.32,87,0,6.91,US,1649507136
222,lima,-12.0432,-77.0282,62.85,88,100,3.44,PE,1649507013
223,bandar-e lengeh,26.5579,54.8807,91.51,31,99,11.5,IR,1649507137
224,gallup,35.5281,-108.7426,46.15,23,6,5.68,US,1649507137
225,gillette,44.2911,-105.5022,52.86,31,0,11.5,US,1649507137
226,esperance,-33.8667,121.9,58.84,54,99,10.22,AU,1649507137
227,mabaruma,8.2,-59.7833,76.55,92,94,4.54,GY,1649507137
228,eyl,7.9803,49.8164,85.71,64,89,13.82,SO,1649507137
229,rorvik,64.8621,11.2373,39.18,67,92,7.09,NO,1649507137
230,chapais,49.7834,-74.8492,33.58,97,100,6.69,CA,1649507137
231,gizo,-8.103,156.8419,82.74,74,81,3.91,SB,1649507138
232,constitucion,-35.3333,-72.4167,52.66,84,61,2.91,CL,1649507138
233,tommot,58.9564,126.2925,14.05,93,98,2.19,RU,1649507138
234,caohai,26.8661,104.2841,56.43,68,97,2.37,CN,1649507138
235,wonthaggi,-38.6044,145.5913,62.82,80,36,4.81,AU,1649507138
236,krasnoselkup,65.7,82.4667,8.6,90,100,10.47,RU,1649506986
237,bonavista,48.6499,-53.1147,33.44,82,87,11.97,CA,1649507138
238,khandyga,62.6667,135.6,22.28,96,100,3.49,RU,1649507138
239,kokopo,-4.352,152.2633,79.34,81,87,7.7,PG,1649507138
240,ostersund,63.1792,14.6357,33.62,74,100,6.91,SE,1649507139
241,fort nelson,58.8053,-122.7002,31.59,69,40,4.61,CA,1649507139
242,castanos,26.7833,-101.4167,59.34,32,60,6.2,MX,1649507139
243,waddan,29.1614,16.139,82.24,17,98,14.09,LY,1649507013
244,severo-kurilsk,50.6789,156.125,26.6,76,17,8.21,RU,1649507139
245,tukrah,32.5341,20.5791,67.68,51,82,13.67,LY,1649507139
246,port lincoln,-34.7333,135.8667,68.0,72,31,7.38,AU,1649507139
247,mercedes,-34.6515,-59.4307,62.78,75,0,6.02,AR,1649507139
248,vila franca do campo,37.7167,-25.4333,61.21,70,37,21.65,PT,1649507139
249,lavrentiya,65.5833,-171.0,1.85,97,99,4.79,RU,1649507140
250,kaduqli,11.0167,29.7167,99.52,21,28,18.79,SD,1649507140
251,fortuna,40.5982,-124.1573,44.98,85,0,13.8,US,1649507140
252,saryg-sep,51.5,95.6,37.24,43,82,6.64,RU,1649507140
253,yershov,51.3513,48.2766,47.53,93,100,7.63,RU,1649507140
254,klaksvik,62.2266,-6.589,36.52,56,100,15.17,FO,1649507140
255,williston,48.147,-103.618,44.04,41,100,1.99,US,1649507140
256,ostrow mazowiecka,52.8024,21.8951,50.63,43,100,16.73,PL,1649507140
257,benguela,-12.5763,13.4055,80.26,78,77,7.23,AO,1649507141
258,kipushi,-11.7667,27.2333,71.2,75,95,7.63,CD,1649507141
259,fereydun kenar,36.6864,52.5225,60.75,78,89,11.21,IR,1649507141
260,barcelos,41.5388,-8.6151,68.68,67,54,6.15,PT,1649507141
261,narsaq,60.9167,-46.05,34.02,48,15,3.87,GL,1649507141
262,poli,-3.3333,36.8,78.15,40,28,7.72,TZ,1649507141
263,saint-leu,-21.15,55.2833,82.31,77,17,11.3,RE,1649507141
264,jackson,42.4165,-122.8345,38.79,81,0,3.44,US,1649507141
265,calvinia,-31.4707,19.776,73.09,26,0,18.23,ZA,1649507141
266,noumea,-22.2763,166.4572,81.0,99,40,11.88,NC,1649507141
267,baherden,38.4362,57.4316,90.72,14,99,7.83,TM,1649507142
268,nioro,13.35,-15.75,102.2,8,20,10.02,GM,1649507142
269,nouadhibou,20.931,-17.0347,76.98,50,0,16.11,MR,1649507142
270,norman wells,65.282,-126.8329,23.04,63,75,19.57,CA,1649507142
271,egvekinot,66.3167,-179.1667,-7.17,97,95,3.91,RU,1649507142
272,solton,52.8429,86.4787,34.99,77,82,11.14,RU,1649507142
273,dunedin,-45.8742,170.5036,55.8,64,37,14.0,NZ,1649506881
274,pangai,-19.8,-174.35,77.11,88,20,2.3,TO,1649507143
275,kavieng,-2.5744,150.7967,81.73,77,80,5.08,PG,1649507143
276,nikolskoye,59.7035,30.7861,48.09,70,12,9.51,RU,1649507143
277,amga,60.8953,131.9608,8.35,93,45,0.63,RU,1649507143
278,clyde river,70.4692,-68.5914,-10.97,77,100,4.61,CA,1649507143
279,provideniya,64.3833,-173.3,13.53,96,99,6.87,RU,1649507143
280,dafeng,23.4517,108.5881,75.18,47,6,5.93,CN,1649507112
281,agua fria,13.4689,-87.5511,75.72,62,73,3.38,HN,1649507143
282,ca mau,9.1769,105.15,79.45,82,76,4.52,VN,1649507144
283,khudumelapye,-23.8833,24.75,61.63,87,100,13.24,BW,1649507144
284,souillac,-20.5167,57.5167,84.58,65,20,9.22,MU,1649507144
285,pangnirtung,66.1451,-65.7125,9.63,88,80,3.87,CA,1649507144
286,ust-tsilma,65.441,52.1498,35.62,100,98,11.1,RU,1649507144
287,norsup,-16.0667,167.3833,81.07,80,66,5.82,VU,1649507144
288,morwell,-38.2333,146.4,65.41,94,25,0.83,AU,1649507144
289,phirangipuram,16.3,80.2667,90.75,50,64,17.58,IN,1649507144
290,ahipara,-35.1667,173.1667,58.48,80,39,5.44,NZ,1649507144
291,abrau-dyurso,44.69,37.59,62.06,77,52,15.79,RU,1649507144
292,gushikawa,26.3544,127.8686,70.83,80,0,13.8,JP,1649507144
293,lompoc,34.6391,-120.4579,50.72,82,75,27.0,US,1649507145
294,hervey bay,-25.2986,152.8535,75.27,82,100,18.66,AU,1649507145
295,porosozero,62.7191,32.727,36.3,79,91,14.03,RU,1649507145
296,coihaique,-45.5752,-72.0662,39.15,100,100,2.3,CL,1649507145
297,port pirie,-33.1833,138.0167,68.09,35,1,7.11,AU,1649507145
298,jardim,-21.4803,-56.1381,76.35,79,100,5.59,BR,1649507145
299,dudinka,69.4058,86.1778,2.62,95,100,4.34,RU,1649507145
300,bambous virieux,-20.3428,57.7575,84.45,65,20,9.22,MU,1649507145
301,russkaya polyana,49.417,31.9201,65.77,47,100,17.74,UA,1649507145
302,mandalgovi,45.7625,106.2708,52.21,17,12,23.0,MN,1649507146
303,kikwit,-5.041,18.8162,76.03,86,99,3.02,CD,1649507146
304,westport,41.1415,-73.3579,49.89,94,100,1.01,US,1649507146
305,stephenville,32.2207,-98.2023,48.16,48,0,3.44,US,1649507146
306,vestmanna,62.1564,-7.1664,34.72,64,100,5.75,FO,1649507146
307,cazones,20.7167,-97.3167,66.0,94,20,5.75,MX,1649507146
308,liyang,29.7057,118.2862,67.15,61,27,2.95,CN,1649507146
309,talaja,21.35,72.05,94.95,40,3,16.55,IN,1649507146
310,honiara,-9.4333,159.95,77.95,86,56,5.86,SB,1649507060
311,pisco,-13.7,-76.2167,64.45,88,100,2.3,PE,1649507146
312,puerto leguizamo,-0.1934,-74.7819,71.83,99,100,1.25,CO,1649507147
313,isangel,-19.55,169.2667,80.92,84,78,8.81,VU,1649507147
314,ketchikan,55.3422,-131.6461,37.38,93,75,3.44,US,1649507147
315,atascocita,29.9988,-95.1766,62.51,71,0,0.0,US,1649507147
316,roma,43.2128,-75.4557,43.52,91,100,1.01,US,1649507147
317,coahuayana,18.7333,-103.6833,70.21,62,7,3.42,MX,1649507147
318,berlevag,70.8578,29.0864,35.4,97,100,27.67,NO,1649507148
319,coari,-4.085,-63.1414,75.87,94,100,3.31,BR,1649507148
320,daru,-9.0763,143.2092,80.76,78,78,8.57,PG,1649507148
321,kichera,55.9375,110.0997,26.53,80,99,5.73,RU,1649507148
322,martapura,-3.4167,114.85,78.89,94,99,1.14,ID,1649507148
323,zverinogolovskoye,54.4586,64.8542,54.66,53,77,2.64,RU,1649507148
324,sechura,-5.5569,-80.8222,70.16,78,100,8.9,PE,1649507148
325,korla,41.7597,86.1469,80.6,11,12,4.21,CN,1649507148
326,thompson,55.7435,-97.8558,33.96,44,100,4.61,CA,1649507148
327,surovikino,48.6078,42.8486,63.72,47,83,11.88,RU,1649507149
328,cehegin,38.0924,-1.7985,67.26,45,54,2.28,ES,1649507149
329,dicabisagan,17.0818,122.4157,76.15,91,78,5.23,PH,1649507149
330,college,64.8569,-147.8028,0.0,58,0,0.0,US,1649507149
331,nur,52.6683,22.3221,48.34,50,100,17.49,PL,1649507149
332,port hawkesbury,45.6169,-61.3485,44.91,99,100,5.75,CA,1649507149
333,ongandjera,-17.8833,15.0667,87.58,28,0,5.59,NA,1649507149
334,bambanglipuro,-7.95,110.2833,79.45,77,73,1.79,ID,1649507149
335,avera,33.194,-82.5271,42.55,72,1,7.38,US,1649507149
336,lixourion,38.2019,20.4314,64.4,82,20,0.0,GR,1649507149
337,taseyevo,57.2169,94.8978,33.06,90,98,1.45,RU,1649507150
338,portland,45.5234,-122.6762,43.61,84,86,3.0,US,1649507150
339,trelleborg,55.3751,13.1569,47.98,55,26,24.05,SE,1649507150
340,pinotepa nacional,16.3167,-98.0167,72.45,62,35,3.42,MX,1649507150
341,wairoa,-39.0333,177.3667,48.54,96,25,1.01,NZ,1649507150
342,yaan,7.3833,8.5667,87.87,51,100,6.53,NG,1649507150
343,sao filipe,14.8961,-24.4956,77.02,64,8,11.1,CV,1649507150
344,luderitz,-26.6481,15.1594,70.9,52,0,6.96,NA,1649507150
345,labuhan,-6.8844,112.2051,81.16,77,75,1.16,ID,1649507150
346,dakar,14.6937,-17.4441,97.68,64,0,19.57,SN,1649507081
347,sitka,57.0531,-135.33,35.49,80,75,6.91,US,1649507150
348,kaitangata,-46.2817,169.8464,52.41,79,31,9.42,NZ,1649507150
349,brae,60.3964,-1.353,39.54,60,98,25.39,GB,1649507151
350,kitimat,54.0524,-128.6534,35.91,53,94,4.05,CA,1649507151
351,ambon,-3.6954,128.1814,80.74,83,40,4.61,ID,1649507151
352,kroonstad,-27.6504,27.2349,62.67,63,100,12.41,ZA,1649507151
353,taree,-31.9,152.4667,66.13,100,75,4.61,AU,1649507151
354,camacha,33.0833,-16.3333,62.02,63,75,9.22,PT,1649507151
355,suleja,9.1758,7.1808,86.99,32,94,5.12,NG,1649507151
356,van,38.4924,43.3831,47.55,71,75,8.05,TR,1649506909
357,san ciro de acosta,21.6333,-99.8167,56.79,64,88,0.92,MX,1649507151
358,kloulklubed,7.0419,134.2556,75.7,79,100,16.91,PW,1649507151
359,springbok,-29.6643,17.8865,80.24,22,0,13.62,ZA,1649507151
360,seoul,37.5683,126.9778,64.0,44,0,8.05,KR,1649507152
361,tanout,14.9709,8.8879,104.92,3,4,5.53,NE,1649507152
362,abnub,27.2696,31.1511,90.48,9,74,14.56,EG,1649507152
363,katherine,-14.4667,132.2667,73.72,49,91,0.0,AU,1649506948
364,tupik,54.4253,119.9327,20.1,83,78,0.69,RU,1649507152
365,mount pleasant,32.7941,-79.8626,50.99,55,0,12.66,US,1649507152
366,kenitra,34.261,-6.5802,70.56,53,6,8.01,MA,1649507152
367,rabo de peixe,37.8,-25.5833,60.31,72,20,21.85,PT,1649507152
368,kropotkin,45.4375,40.5756,63.93,56,55,16.44,RU,1649507153
369,yerbogachen,61.2767,108.0108,19.4,90,91,4.32,RU,1649507153
370,bataipora,-22.2953,-53.2711,73.94,85,100,1.34,BR,1649507153
371,danilov,58.1908,40.1717,45.34,79,99,6.55,RU,1649507153
372,orchard homes,46.8633,-114.0484,37.54,60,100,12.66,US,1649507153
373,san cristobal,7.7669,-72.225,69.98,62,96,1.79,VE,1649506935
374,carutapera,-1.195,-46.02,77.0,94,100,3.58,BR,1649507153
375,sur,22.5667,59.5289,94.95,29,76,5.66,OM,1649507153
376,lamar,33.6668,-95.5836,40.91,60,0,0.0,US,1649507153
377,makokou,0.5738,12.8642,77.5,86,98,4.05,GA,1649507153
378,coquimbo,-29.9533,-71.3436,58.87,87,13,0.72,CL,1649507153
379,babstovo,48.1167,132.4833,32.11,92,42,5.03,RU,1649507154
380,balkhash,46.844,74.9804,63.21,25,0,13.42,KZ,1649507154
381,taoudenni,22.6783,-3.9836,91.65,5,0,16.71,ML,1649507154
382,berdigestyakh,62.0989,126.6992,9.84,96,44,2.21,RU,1649507154
383,valparaiso,-33.0393,-71.6273,56.48,81,100,5.75,CL,1649507154
384,viedma,-40.8135,-62.9967,59.61,82,87,11.68,AR,1649507154
385,tessalit,20.1986,1.0114,96.08,8,1,16.91,ML,1649507154
386,decatur,39.8403,-88.9548,33.87,86,0,6.91,US,1649507154
387,anju,39.6178,125.6647,57.76,66,3,3.38,KP,1649507155
388,longkou,37.6508,120.3286,66.07,53,1,15.9,CN,1649507155
389,kavaratti,10.5669,72.642,84.27,74,86,8.61,IN,1649507155
390,kiruna,67.8557,20.2251,29.32,93,100,12.66,SE,1649507032
391,petropavlovsk-kamchatskiy,53.0452,158.6483,27.19,54,0,2.24,RU,1649506929
392,zhezkazgan,47.8043,67.7144,60.78,41,20,20.13,KZ,1649507155
393,tutoia,-2.7619,-42.2744,80.74,79,94,8.72,BR,1649506998
394,lata,40.1629,-8.3327,60.82,82,99,4.7,PT,1649507155
395,cavaillon,43.8312,5.0359,58.19,38,0,23.02,FR,1649507155
396,nantucket,41.2835,-70.0995,51.94,80,75,0.0,US,1649507155
397,san policarpo,12.1791,125.5072,79.57,85,100,14.81,PH,1649507155
398,guliston,40.4897,68.7842,87.93,23,70,14.27,UZ,1649507155
399,benghazi,32.1167,20.0667,66.4,53,76,10.54,LY,1649507155
400,atbasar,51.8,68.3333,40.06,80,99,8.86,KZ,1649507156
401,morgantown,39.6295,-79.9559,40.21,90,100,5.75,US,1649507156
402,vuktyl,63.8567,57.3094,37.58,89,65,10.29,RU,1649507156
403,saint-georges,12.0564,-61.7485,83.88,70,20,19.57,GD,1649507156
404,taldan,53.6667,124.8,24.66,90,95,3.24,RU,1649507156
405,lithgow,-33.4833,150.15,55.47,93,100,5.66,AU,1649507156
406,hirado,33.3597,129.5531,61.16,80,0,6.93,JP,1649507156
407,mitchelstown,52.2658,-8.2681,50.97,53,74,1.05,IE,1649507156
408,mujiayingzi,42.1167,118.7833,62.19,29,70,10.29,CN,1649507157
409,vicuna,-30.0319,-70.7081,67.91,49,0,0.72,CL,1649507157
410,ponta delgada,37.7333,-25.6667,61.52,72,20,21.85,PT,1649507157
411,mecca,21.4267,39.8261,101.26,11,0,13.96,SA,1649506910
412,mahibadhoo,3.7833,72.9667,85.26,67,58,10.98,MV,1649507157
413,sumenep,-7.0167,113.8667,80.2,79,73,2.48,ID,1649507157
414,ximei,24.9639,118.3794,69.53,69,0,3.87,CN,1649507157
415,karpathos,35.507,27.2132,66.16,68,75,11.5,GR,1649506898
416,koson,39.0375,65.585,86.32,16,37,8.46,UZ,1649507157
417,bengkulu,-3.8004,102.2655,80.46,75,98,1.07,ID,1649507157
418,san antonio del tequendama,4.6189,-74.3539,66.9,82,69,3.11,CO,1649507157
419,aykhal,66.0,111.5,9.73,91,75,1.63,RU,1649507158
420,gusau,12.1628,6.6614,100.85,19,70,4.52,NG,1649507058
421,ozark,37.0209,-93.206,35.6,84,0,6.24,US,1649507158
422,padang,-0.9492,100.3543,82.45,80,82,1.19,ID,1649506938
423,yambio,4.5721,28.3955,101.07,20,19,4.9,SS,1649507158
424,dalby,-27.1833,151.2667,68.99,81,19,3.0,AU,1649507158
425,cockburn town,21.4612,-71.1419,78.76,73,40,17.27,TC,1649507158
426,laurel,39.0993,-76.8483,47.64,88,0,8.05,US,1649507158
427,marawi,7.9986,124.2928,67.32,92,98,1.1,PH,1649507158
428,meulaboh,4.1363,96.1285,81.28,78,81,4.41,ID,1649507158
429,samana,19.2056,-69.3369,73.62,94,75,0.0,DO,1649507159
430,malnas,46.0167,25.8333,66.63,59,63,7.14,RO,1649507159
431,mehamn,71.0357,27.8492,35.51,98,100,29.48,NO,1649507159
432,longyearbyen,78.2186,15.6401,24.64,68,40,11.5,SJ,1649506896
433,wejherowo,54.6057,18.2356,46.65,55,30,11.99,PL,1649507159
434,kidal,18.4411,1.4078,104.13,6,2,9.86,ML,1649507030
435,aksarka,66.5606,67.7975,17.6,88,100,4.41,RU,1649507159
436,nicolas bravo,18.45,-88.9167,64.45,76,52,4.61,MX,1649507159
437,vila velha,-20.3297,-40.2925,85.95,74,0,9.22,BR,1649507159
438,oriximina,-1.7656,-55.8661,73.89,95,100,2.84,BR,1649507143
439,new glasgow,45.5834,-62.6486,46.18,89,98,7.83,CA,1649507160
440,sarkand,45.41,79.9186,58.87,39,98,8.55,KZ,1649507160
441,cabedelo,-6.9811,-34.8339,84.87,67,98,13.82,BR,1649507160
442,manturovo,58.3353,44.7619,46.99,89,100,10.4,RU,1649507160
443,mpika,-11.8343,31.4529,70.36,76,97,8.19,ZM,1649507160
444,liverpool,53.4106,-2.9779,51.62,62,40,17.27,GB,1649507160
445,ylojarvi,61.5563,23.5961,37.94,54,75,17.27,FI,1649507142
446,bashtanka,47.4072,32.4387,68.58,34,92,23.44,UA,1649507160
447,granadilla de abona,28.1188,-16.576,64.44,60,0,9.22,ES,1649507160
448,champerico,14.3,-91.9167,75.74,68,93,3.38,GT,1649507161
449,mayo,38.8876,-76.5119,48.15,86,0,10.0,US,1649507161
450,hobyo,5.3505,48.5268,85.89,64,78,12.03,SO,1649507161
451,luanda,-8.8368,13.2343,86.0,66,75,9.22,AO,1649507161
452,biak,-0.9131,122.8766,77.63,77,96,2.82,ID,1649507161
453,sola,-13.8833,167.55,82.89,73,83,15.3,VU,1649507161
454,fomboni,-12.28,43.7425,83.7,73,95,11.81,KM,1649507161
455,polson,47.6936,-114.1632,37.49,56,57,13.0,US,1649507161
456,yar-sale,66.8333,70.8333,6.98,91,61,4.07,RU,1649507162
457,puerto escondido,15.85,-97.0667,74.23,88,0,5.75,MX,1649507162
458,anadyr,64.75,177.4833,3.7,78,40,6.71,RU,1649507137
459,darnah,32.767,22.6367,64.04,62,70,9.6,LY,1649507162
460,saint-francois,46.4154,3.9054,49.44,57,75,8.05,FR,1649507162
461,hay river,60.8156,-115.7999,30.18,86,75,13.8,CA,1649507162
462,shieli,44.1667,66.75,78.91,28,91,5.46,KZ,1649507162
463,salinopolis,-0.6136,-47.3561,76.3,93,100,7.81,BR,1649507162
464,charters towers,-20.1,146.2667,72.82,80,57,10.92,AU,1649507162
465,karatau,43.1667,70.4667,76.19,45,94,11.03,KZ,1649507163
466,burgeo,47.6167,-57.6152,34.47,98,100,29.91,CA,1649507163
467,iqaluit,63.7506,-68.5145,15.53,86,100,12.66,CA,1649507163
468,umm kaddadah,13.6017,26.6876,102.97,7,2,8.66,SD,1649507018
469,diffa,13.3154,12.6113,107.28,4,93,12.5,NE,1649507163
470,kinsale,51.7075,-8.5306,49.37,43,40,4.61,IE,1649507163
471,yamasaki,35.0,134.55,57.34,78,0,0.31,JP,1649507163
472,vostok,46.4856,135.8833,26.51,97,78,1.68,RU,1649507163
473,lexington,37.9887,-84.4777,37.4,85,100,9.22,US,1649507129
474,nizhniy odes,63.6445,54.856,35.35,99,88,10.47,RU,1649507163
475,wana,32.2989,69.5725,88.54,6,20,8.01,PK,1649507164
476,leshukonskoye,64.8989,45.7622,42.66,88,100,14.45,RU,1649507164
477,puerto el triunfo,13.2833,-88.55,81.52,71,87,5.26,SV,1649507164
478,shitanjing,39.2342,106.3439,67.08,9,11,6.08,CN,1649507164
479,grong,64.4654,12.3149,38.48,80,100,3.69,NO,1649507164
480,verkhnyaya inta,65.9811,60.3094,33.15,96,70,5.95,RU,1649506874
481,raga,8.4596,25.678,102.72,18,33,7.54,SS,1649507164
482,adre,13.4667,22.2,100.49,13,45,8.59,TD,1649507164
483,tarsus,36.9188,34.8784,79.18,63,0,9.1,TR,1649507164
484,swan hill,-35.3378,143.5544,65.05,76,30,8.77,AU,1649507164
485,teya,60.3778,92.6267,31.17,94,100,4.12,RU,1649507165
486,axim,4.8699,-2.2405,86.67,67,94,8.57,GH,1649507165
487,hamilton,39.1834,-84.5333,37.11,91,100,8.05,US,1649507165
488,sai buri,6.7013,101.6168,80.15,78,33,4.72,TH,1649507165
489,emerald,-23.5333,148.1667,75.34,73,40,9.22,AU,1649507165
490,marzuq,14.4,46.4667,87.55,15,0,18.14,YE,1649507165
491,praia,14.9215,-23.5087,76.98,60,6,17.27,CV,1649507165
492,broome,42.2506,-75.833,42.37,84,100,6.91,US,1649507165
493,ishigaki,24.3448,124.1572,73.53,83,75,12.66,JP,1649507165
494,balaipungut,1.05,101.2833,78.66,85,100,3.36,ID,1649507165
495,sandakan,5.8402,118.1179,78.48,94,40,5.75,MY,1649507166
496,heihe,50.2441,127.4902,39.78,98,87,6.24,CN,1649507166
497,mahon,39.8885,4.2658,59.56,58,75,14.97,ES,1649507133
498,talara,-4.5772,-81.2719,72.12,78,99,11.41,PE,1649507166
499,ixtapa,20.7,-105.2,69.22,88,20,1.01,MX,1649507166
500,stepnyak,52.8339,70.7803,46.8,38,1,4.23,KZ,1649507166
501,talas,38.6908,35.5538,66.87,32,0,10.36,TR,1649507166
502,japura,-0.3167,102.35,77.63,85,99,2.93,ID,1649507166
503,henties bay,-22.116,14.2845,66.18,67,1,8.84,NA,1649507166
504,walvis bay,-22.9575,14.5053,62.1,56,6,10.96,NA,1649507166
505,kandrian,-6.2167,149.55,75.34,95,100,6.82,PG,1649507166
506,namibe,-15.1961,12.1522,75.83,69,40,12.66,AO,1649507167
507,krasnyy yar,46.5331,48.3456,58.93,71,90,15.97,RU,1649507167
508,arlit,18.7369,7.3853,107.4,3,25,8.84,NE,1649507167
509,ziarat,30.3823,67.7282,72.82,8,0,9.53,PK,1649507167
510,salta,-24.7859,-65.4117,66.79,87,75,2.3,AR,1649506989
511,sisimiut,66.9395,-53.6735,13.23,77,32,3.06,GL,1649507167
512,muros,42.7762,-9.0603,66.69,64,41,5.35,ES,1649507133
513,aparecida do taboado,-20.0867,-51.0936,76.91,80,53,1.19,BR,1649507167
514,ardabil,38.2498,48.2933,47.75,87,100,6.91,IR,1649507167
515,marsh harbour,26.5412,-77.0636,72.93,59,85,16.98,BS,1649507167
516,ambilobe,-13.2,49.05,87.78,62,84,2.28,MG,1649507167
517,strelka,58.0728,93.0344,33.55,93,100,2.04,RU,1649507168
518,spittal,51.8689,-4.9425,48.58,68,15,3.0,GB,1649507168
519,poya,-21.35,165.15,76.14,91,78,4.54,NC,1649507168
520,chumikan,54.7183,135.315,21.87,93,100,4.61,RU,1649507168
521,alirajpur,22.3031,74.3546,103.06,9,2,10.78,IN,1649507168
522,minab,27.1467,57.0801,90.9,28,67,10.54,IR,1649507078
523,vaitape,-16.5167,-151.75,82.62,71,100,17.54,PF,1649507168
524,ossora,59.2353,163.0719,21.13,92,97,5.28,RU,1649507168
525,sioux lookout,50.1001,-91.917,14.07,85,20,2.3,CA,1649507168
526,imbituba,-28.24,-48.6703,70.68,84,36,4.03,BR,1649507169
527,orcopampa,-15.2661,-72.3417,45.32,87,100,1.32,PE,1649507169
528,doka,13.5167,35.7667,105.24,8,0,7.56,SD,1649507169
529,suhbaatar,50.2314,106.2078,39.27,65,100,3.96,MN,1649507169
530,yumen,40.2833,97.2,67.91,10,93,8.63,CN,1649507169
531,waipawa,-41.4122,175.5153,45.72,85,0,4.12,NZ,1649507169
532,kota tinggi,1.7381,103.8999,82.35,89,99,2.28,MY,1649507169
533,rodez,44.5,2.5833,51.04,53,75,18.41,FR,1649507169
534,guerande,47.3291,-2.4283,54.55,55,5,9.66,FR,1649507169
535,jiazi,22.8779,116.067,69.78,75,0,9.66,CN,1649507169
536,kokorevka,52.5872,34.2778,47.39,80,100,12.5,RU,1649507170
537,jetpur,21.7333,70.6167,102.97,8,9,16.28,IN,1649507170
538,quatre cocos,-20.2078,57.7625,84.31,71,26,12.53,MU,1649507170
539,dasoguz,41.8363,59.9666,76.95,31,78,9.22,TM,1649507170
540,aspe,38.3451,-0.7672,74.41,45,20,10.36,ES,1649507170
541,port blair,11.6667,92.75,84.24,74,20,3.44,IN,1649507170
542,ures,29.4333,-110.4,66.45,51,18,2.91,MX,1649507170
543,durazno,-33.4131,-56.5006,64.35,100,75,9.22,UY,1649507170
544,workington,54.6425,-3.5441,45.82,70,80,13.65,GB,1649507025
545,beloha,-25.1667,45.05,85.5,47,58,17.25,MG,1649507171
546,pandan,14.0453,124.1694,78.3,87,100,9.26,PH,1649507171
547,zhigansk,66.7697,123.3711,7.86,91,74,8.63,RU,1649507171
548,tautira,-17.7333,-149.15,80.56,79,100,17.31,PF,1649507088
549,sao joao da barra,-21.6403,-41.0511,78.89,76,100,7.74,BR,1649507171
550,kyra,49.5776,111.9753,45.34,67,86,7.99,RU,1649507171
551,maceio,-9.6658,-35.7353,83.64,74,75,5.75,BR,1649506903
552,moissac,44.1024,1.0945,55.47,52,45,14.03,FR,1649507171
553,calbuco,-41.768,-73.1273,50.54,86,79,11.59,CL,1649507171
554,tambun,-6.2641,107.0712,88.47,66,27,5.08,ID,1649507172
555,port moresby,-9.4431,147.1797,78.22,94,75,5.75,PG,1649507172
556,bucerias,20.75,-105.3333,69.98,88,20,0.0,MX,1649507172
557,winnemucca,40.973,-117.7357,35.65,48,0,12.66,US,1649507172
558,acajutla,13.5928,-89.8275,79.56,64,99,8.86,SV,1649507172
559,mallaig,54.2169,-111.3685,35.89,75,58,20.49,CA,1649507172
560,kysyl-syr,63.8986,122.7617,16.95,97,90,3.47,RU,1649507172
561,diapaga,12.0708,1.7889,105.87,18,37,7.7,BF,1649507172
562,ruteng,-8.6136,120.4721,63.48,91,57,0.92,ID,1649507172
563,nhulunbuy,-12.2333,136.7667,81.21,78,59,5.75,AU,1649507172
564,comodoro rivadavia,-45.8667,-67.5,55.26,94,40,0.0,AR,1649507042
565,karlskoga,59.3267,14.5239,41.4,89,100,11.43,SE,1649507172
566,saint marys,30.7305,-81.5465,55.02,70,0,5.75,US,1649507173
567,cuauhtemoc,28.4167,-106.8667,49.03,33,100,2.21,MX,1649507173
568,khani,41.9563,42.9566,51.37,93,99,2.01,GE,1649507173
569,keti bandar,24.1447,67.4497,86.49,55,47,15.95,PK,1649507173
570,malmyzh,56.5205,50.6818,41.23,97,100,10.2,RU,1649507173
