City_ID,City,Lat,Lng,Max Temp,Humidity,Cloudiness,Wind Speed,Country,Date
0,guarapari,-20.6667,-40.4975,86.9,61,98,6.44,BR,1649513564
1,cidreira,-30.1811,-50.2056,71.82,83,97,9.15,BR,1649513564
2,kapaa,22.0752,-159.319,73.47,88,100,20.71,US,1649513509
3,kempele,64.9131,25.5034,40.12,52,75,5.75,FI,1649513565
4,hilo,19.7297,-155.09,69.53,83,100,5.75,US,1649513565
5,saint-philippe,-21.3585,55.7679,80.22,84,46,10.4,RE,1649513565
6,rikitea,-23.1203,-134.9692,78.89,74,6,17.38,PF,1649513565
7,shirgaon,19.7,72.7,82.92,76,19,8.52,IN,1649513565
8,mataura,-46.1927,168.8643,44.83,96,78,3.71,NZ,1649513565
9,logumkloster,55.0594,8.9551,45.95,75,24,24.85,DK,1649513565
10,veshenskaya,49.6303,41.7334,60.82,46,48,11.41,RU,1649513565
11,krasnoselkup,65.7,82.4667,-1.46,99,71,7.61,RU,1649513565
12,ketchikan,55.3422,-131.6461,33.78,83,17,1.61,US,1649513566
13,mar del plata,-38.0023,-57.5575,64.87,85,75,11.99,AR,1649513461
14,upernavik,72.7868,-56.1549,3.31,94,100,9.35,GL,1649513349
15,yellowknife,62.456,-114.3525,21.56,84,100,18.01,CA,1649513566
16,egvekinot,66.3167,-179.1667,-9.69,96,87,5.39,RU,1649513281
17,otradnoye,59.7775,30.8181,48.25,77,98,10.85,RU,1649513566
18,cape town,-33.9258,18.4232,80.28,31,0,8.99,ZA,1649513544
19,east london,-33.0153,27.9116,66.22,83,100,15.17,ZA,1649513566
20,bluff,-46.6,168.3333,57.22,79,88,20.76,NZ,1649513566
21,belyy yar,53.6039,91.3903,37.85,60,0,6.71,RU,1649513567
22,atuona,-9.8,-139.0333,78.84,79,20,21.27,PF,1649513567
23,sonoita,31.85,-112.8333,68.79,19,6,8.1,MX,1649513567
24,dhuburi,26.0333,89.9667,80.53,63,15,11.99,IN,1649513567
25,provideniya,64.3833,-173.3,16.65,96,100,4.5,RU,1649513341
26,clyde river,70.4692,-68.5914,-0.17,85,100,10.36,CA,1649513567
27,moquegua,-17.1956,-70.9353,72.27,39,80,4.76,PE,1649513567
28,avarua,-21.2078,-159.775,82.45,83,40,10.36,CK,1649513567
29,hermanus,-34.4187,19.2345,70.81,48,0,23.8,ZA,1649513453
30,hobyo,5.3505,48.5268,83.91,69,15,13.15,SO,1649513567
31,busselton,-33.65,115.3333,59.49,56,99,5.26,AU,1649513568
32,puerto ayora,-0.7393,-90.3518,80.56,78,100,4.05,EC,1649513568
33,mao,39.8885,4.2658,59.56,55,40,11.5,ES,1649513535
34,correntina,-13.3433,-44.6367,91.92,24,7,4.61,BR,1649513568
35,vostok,46.4856,135.8833,23.56,97,18,4.05,RU,1649513568
36,hamilton,39.1834,-84.5333,39.65,85,100,13.8,US,1649513568
37,shitanjing,39.2342,106.3439,64.72,10,85,4.27,CN,1649513568
38,bengkulu,-3.8004,102.2655,79.52,78,100,2.17,ID,1649513568
39,nizhniy kuranakh,58.8353,125.4869,5.95,96,32,2.46,RU,1649513568
40,khatanga,71.9667,102.5,3.15,99,66,5.84,RU,1649513568
41,sarkand,45.41,79.9186,54.7,45,100,5.68,KZ,1649513568
42,thompson,55.7435,-97.8558,31.78,89,100,13.22,CA,1649513569
43,victoria,22.2855,114.1577,75.18,71,0,11.01,HK,1649513505
44,nikolskoye,59.7035,30.7861,48.09,77,100,10.85,RU,1649513569
45,ilulissat,69.2167,-51.1,12.22,67,75,8.05,GL,1649513349
46,kodiak,57.79,-152.4072,27.91,46,0,13.8,US,1649513569
47,chumikan,54.7183,135.315,18.82,94,100,3.65,RU,1649513569
48,samana,19.2056,-69.3369,80.82,78,40,4.61,DO,1649513569
49,tiksi,71.6872,128.8694,-10.46,100,100,3.27,RU,1649513569
50,doka,13.5167,35.7667,104.99,8,2,7.34,SD,1649513569
51,new norfolk,-42.7826,147.0587,63.9,63,24,2.91,AU,1649513569
52,souillac,-20.5167,57.5167,79.18,83,40,8.05,MU,1649513569
53,lahij,13.1667,44.5833,86.07,33,0,13.85,YE,1649513570
54,tasiilaq,65.6145,-37.6368,32.16,86,100,1.81,GL,1649513349
55,port alfred,-33.5906,26.891,67.17,80,99,5.99,ZA,1649513570
56,ola,59.5833,151.2833,10.29,98,86,3.49,RU,1649513570
57,araouane,18.9048,-3.5265,101.17,6,34,15.48,ML,1649513570
58,nanortalik,60.1432,-45.2371,32.05,69,9,1.41,GL,1649513570
59,ribeira grande,38.5167,-28.7,54.0,87,75,26.46,PT,1649513570
60,korla,41.7597,86.1469,74.44,15,65,4.0,CN,1649513385
61,esperance,-33.8667,121.9,60.64,56,37,6.42,AU,1649513570
62,vaini,-21.2,-175.2,75.36,100,40,0.0,TO,1649513571
63,airai,-8.9266,125.4092,59.22,83,97,2.62,TL,1649513571
64,mustasaari,63.1142,21.6822,37.35,60,75,11.5,FI,1649513571
65,taft,31.7471,54.2088,81.39,8,100,10.13,IR,1649513571
66,vorsma,55.9856,43.2717,48.04,95,100,6.26,RU,1649513571
67,ushuaia,-54.8,-68.3,44.22,70,20,2.3,AR,1649513571
68,laguna,38.421,-121.4238,59.18,39,0,17.27,US,1649513571
69,pevek,69.7008,170.3133,-14.8,99,98,7.23,RU,1649513571
70,tarana,23.3333,76.0333,95.02,12,4,8.41,IN,1649513571
71,awbari,26.5921,12.7805,96.85,10,6,14.45,LY,1649513571
72,camapua,-19.5314,-54.0439,86.49,56,13,4.88,BR,1649513571
73,taltal,-25.4,-70.4833,66.24,66,18,5.21,CL,1649513572
74,georgetown,5.4112,100.3354,82.33,83,20,0.0,MY,1649513572
75,qaanaaq,77.484,-69.3632,-2.85,71,9,5.97,GL,1649513572
76,scottsbluff,41.8666,-103.6672,61.29,33,0,11.99,US,1649513572
77,mahebourg,-20.4081,57.7,80.26,83,40,8.05,MU,1649513572
78,luwuk,-0.9516,122.7875,78.08,77,100,3.42,ID,1649513572
79,waingapu,-9.6567,120.2641,78.82,83,96,3.51,ID,1649513572
80,salta,-24.7859,-65.4117,67.93,86,88,3.94,AR,1649513306
81,luderitz,-26.6481,15.1594,70.52,52,0,4.79,NA,1649513572
82,ati,13.2154,18.3353,108.97,5,32,10.22,TD,1649513289
83,beringovskiy,63.05,179.3167,29.66,93,100,12.53,RU,1649513573
84,tuktoyaktuk,69.4541,-133.0374,5.0,85,100,20.71,CA,1649513573
85,cockburn town,21.4612,-71.1419,78.6,80,55,20.96,TC,1649513573
86,punta arenas,-53.15,-70.9167,42.91,93,40,9.22,CL,1649513573
87,hithadhoo,-0.6,73.0833,84.07,67,94,7.65,MV,1649513573
88,chicama,-7.8447,-79.1469,64.94,72,100,4.79,PE,1649513573
89,chuy,-33.6971,-53.4616,74.28,61,0,4.59,UY,1649513573
90,torbay,47.6666,-52.7314,33.58,84,100,7.0,CA,1649513573
91,faanui,-16.4833,-151.75,82.06,74,87,16.78,PF,1649513573
92,asau,46.4333,26.4,69.28,66,96,12.06,RO,1649513574
93,te anau,-45.4167,167.7167,44.56,90,46,0.38,NZ,1649513574
94,chernyakhovsk,54.6335,21.8156,45.54,52,72,15.7,RU,1649513574
95,nouadhibou,20.931,-17.0347,65.16,82,0,19.98,MR,1649513574
96,luanda,-8.8368,13.2343,81.28,77,37,11.48,AO,1649513314
97,dingle,10.9995,122.6711,76.1,88,100,4.36,PH,1649513574
98,fortuna,40.5982,-124.1573,43.99,84,0,12.66,US,1649513575
99,saint george,37.1041,-113.5841,52.39,24,0,4.61,US,1649513575
100,saint-pierre,-21.3393,55.4781,80.29,69,100,19.57,RE,1649513575
101,hobart,-42.8794,147.3294,64.26,72,40,8.05,AU,1649513289
102,castro,-24.7911,-50.0119,75.07,65,95,5.37,BR,1649513575
103,vao,-22.6667,167.4833,77.45,84,16,24.02,NC,1649513575
104,verkhnevilyuysk,63.4453,120.3167,13.06,98,98,2.46,RU,1649513576
105,aldan,58.6031,125.3894,4.28,91,31,4.88,RU,1649513576
106,conde,-7.2597,-34.9075,85.46,74,40,16.11,BR,1649513576
107,katobu,-4.9408,122.5276,75.56,91,100,2.84,ID,1649513576
108,geraldton,-28.7667,114.6,63.01,77,40,1.14,AU,1649513576
109,vilhena,-12.7406,-60.1458,82.18,64,10,3.6,BR,1649513577
110,cherskiy,68.75,161.3,-8.41,100,97,6.82,RU,1649513577
111,kautokeino,69.0125,23.0412,33.03,99,100,18.43,NO,1649513577
112,nicoya,10.1483,-85.452,81.21,68,99,15.55,CR,1649513577
113,port-gentil,-0.7193,8.7815,75.13,83,100,13.65,GA,1649513577
114,hasaki,35.7333,140.8333,54.0,81,0,16.58,JP,1649513577
115,sao joao da barra,-21.6403,-41.0511,82.49,73,100,6.44,BR,1649513578
116,kloulklubed,7.0419,134.2556,73.9,77,100,18.28,PW,1649513578
117,abu dhabi,24.4667,54.3667,91.51,41,0,4.61,AE,1649513568
118,callaway,30.153,-85.5699,56.98,43,0,13.8,US,1649513578
119,butaritari,3.0707,172.7902,79.97,82,75,11.43,KI,1649513578
120,gusau,12.1628,6.6614,103.44,14,99,1.36,NG,1649513455
121,tura,25.5198,90.2201,72.77,79,2,5.48,IN,1649513578
122,meadow lake,34.8014,-106.5436,57.4,18,4,9.69,US,1649513579
123,shimoda,34.6667,138.95,61.11,86,0,12.17,JP,1649513579
124,raudeberg,61.9875,5.1352,37.87,85,100,29.77,NO,1649513579
125,vestmannaeyjar,63.4427,-20.2734,38.39,75,75,28.77,IS,1649513579
126,klaksvik,62.2266,-6.589,34.72,56,100,14.79,FO,1649513579
127,albany,42.6001,-73.9662,45.39,92,100,1.01,US,1649513579
128,semporna,4.4818,118.6112,79.75,83,95,1.9,MY,1649513579
129,jamestown,42.097,-79.2353,39.18,64,100,11.5,US,1649513579
130,debre birhan,9.6833,39.5333,68.81,24,73,15.21,ET,1649513579
131,toora-khem,52.4675,96.11,25.34,89,100,0.85,RU,1649513579
132,barrow,71.2906,-156.7887,-18.38,69,0,9.22,US,1649513305
133,ayr,55.4627,-4.6339,51.51,46,20,19.57,GB,1649513580
134,bredasdorp,-34.5322,20.0403,66.0,63,32,24.79,ZA,1649513580
135,kaitangata,-46.2817,169.8464,51.46,83,26,9.6,NZ,1649513580
136,santa marta,11.2408,-74.199,86.9,60,99,10.0,CO,1649513580
137,leningradskiy,69.3833,178.4167,-23.12,98,62,4.54,RU,1649513580
138,northam,51.0333,-4.2167,50.61,57,69,8.57,GB,1649513580
139,cabo san lucas,22.8909,-109.9124,67.05,89,0,5.01,MX,1649513580
140,colares,38.7992,-9.4469,69.04,81,75,15.99,PT,1649513580
141,camacha,33.0833,-16.3333,62.02,59,75,10.36,PT,1649513580
142,kimbe,-5.5502,150.1429,74.84,94,76,2.1,PG,1649513580
143,iqaluit,63.7506,-68.5145,9.64,91,100,4.56,CA,1649513581
144,chara,56.9064,118.2631,15.44,81,96,3.31,RU,1649513581
145,kavieng,-2.5744,150.7967,81.18,78,85,4.81,PG,1649513581
146,los llanos de aridane,28.6585,-17.9182,64.15,80,20,4.61,ES,1649513581
147,college,64.8569,-147.8028,-2.42,70,0,0.0,US,1649513581
148,lodwar,3.1191,35.5973,97.65,25,14,20.92,KE,1649513581
149,roebourne,-20.7833,117.1333,86.65,39,6,10.25,AU,1649513581
150,okhotsk,59.3833,143.3,17.56,94,100,4.36,RU,1649513581
151,chokurdakh,70.6333,147.9167,-25.08,100,73,4.68,RU,1649513581
152,bathsheba,13.2167,-59.5167,84.81,65,75,23.02,BB,1649513582
153,port blair,11.6667,92.75,82.44,78,20,2.3,IN,1649513582
154,sitka,57.0531,-135.33,35.49,80,100,3.44,US,1649513582
155,lompoc,34.6391,-120.4579,50.41,82,100,28.99,US,1649513582
156,zhangye,38.9342,100.4517,66.29,15,100,4.41,CN,1649513499
157,pitimbu,-7.4706,-34.8086,86.59,69,86,14.56,BR,1649513582
158,orange cove,36.6244,-119.3137,61.68,47,0,2.1,US,1649513582
159,kedrovyy,56.1667,91.8167,30.87,95,100,4.94,RU,1649513582
160,manggar,-2.8833,108.2667,78.82,81,99,4.92,ID,1649513582
161,huarmey,-10.0681,-78.1522,71.24,77,79,8.12,PE,1649513582
162,norman wells,65.282,-126.8329,22.26,92,100,13.0,CA,1649513582
163,port elizabeth,-33.918,25.5701,67.1,83,79,11.01,ZA,1649513582
164,severo-kurilsk,50.6789,156.125,25.52,77,14,5.75,RU,1649513583
165,moura,38.1401,-7.4486,67.87,59,83,2.71,PT,1649513583
166,saskylakh,71.9167,114.0833,-9.96,97,34,2.8,RU,1649513583
167,bretten,49.0392,8.7028,50.23,83,40,11.95,DE,1649513583
168,harper,4.375,-7.7169,86.86,67,100,10.13,LR,1649513583
169,port-cartier,50.0334,-66.8654,32.76,100,100,1.97,CA,1649513583
170,belousovka,50.1339,82.5239,41.85,65,1,2.24,KZ,1649513583
171,guayaramerin,-10.8368,-65.3614,86.13,63,93,3.06,BO,1649513583
172,kobe,34.6913,135.183,60.89,78,0,1.01,JP,1649513412
173,marawi,7.9986,124.2928,66.74,95,100,1.03,PH,1649513584
174,grand gaube,-20.0064,57.6608,80.38,78,1,5.99,MU,1649513584
175,koungou,-12.7336,45.2042,85.71,70,0,3.44,YT,1649513584
176,vieux-habitants,16.0589,-61.7659,84.7,65,43,14.47,GP,1649513584
177,borna,51.1167,12.5,52.29,63,20,19.57,DE,1649513584
178,owando,-0.4819,15.8999,93.27,38,56,4.99,CG,1649513584
179,general cepeda,25.3833,-101.45,64.08,42,63,3.2,MX,1649513584
180,grindavik,63.8424,-22.4338,37.87,93,75,28.77,IS,1649513584
181,lagos,6.5833,3.75,89.13,59,100,8.25,NG,1649513508
182,maniitsoq,65.4167,-52.9,18.01,75,40,1.7,GL,1649513584
183,saint anthony,45.0205,-93.218,39.06,51,0,4.61,US,1649513584
184,pampa,35.5362,-100.9599,59.95,20,0,27.63,US,1649513585
185,ormara,25.2088,64.6357,81.9,73,14,13.22,PK,1649513585
186,praia da vitoria,38.7333,-27.0667,55.76,89,100,26.19,PT,1649513585
187,maceio,-9.6658,-35.7353,87.24,70,75,12.66,BR,1649513585
188,bergerac,44.8333,0.5,59.86,47,0,10.36,FR,1649513535
189,sisimiut,66.9395,-53.6735,15.8,72,52,2.66,GL,1649513585
190,husavik,66.0449,-17.3389,28.06,72,31,5.7,IS,1649513585
191,adrar,20.5022,-10.0711,94.33,6,0,4.83,MR,1649513585
192,lebu,-37.6167,-73.65,58.08,74,35,12.82,CL,1649513585
193,new glasgow,45.5834,-62.6486,41.79,78,97,6.11,CA,1649513585
194,kudahuvadhoo,2.6708,72.8944,85.06,62,18,9.91,MV,1649513586
195,alofi,-19.0595,-169.9187,81.05,76,47,6.89,NU,1649513586
196,cayhagan,9.6697,122.4256,78.76,80,100,3.56,PH,1649513586
197,taoudenni,22.6783,-3.9836,94.73,4,0,13.53,ML,1649513586
198,bambous virieux,-20.3428,57.7575,80.22,83,40,8.05,MU,1649513586
199,samarai,-10.6167,150.6667,82.47,79,100,14.99,PG,1649513586
200,bogorodskoye,56.55,37.8833,45.3,75,81,10.4,RU,1649513586
201,salalah,17.0151,54.0924,84.29,74,0,9.22,OM,1649513586
202,chapaevsk,52.9813,49.7112,44.8,97,100,6.35,RU,1649513586
203,nurota,40.5614,65.6886,74.41,30,100,5.5,UZ,1649513586
204,carutapera,-1.195,-46.02,77.65,93,98,3.15,BR,1649513586
205,dudinka,69.4058,86.1778,2.62,100,92,3.71,RU,1649513444
206,beyneu,45.3167,55.2,67.77,41,43,17.16,KZ,1649513504
207,pacific grove,36.6177,-121.9166,48.31,86,40,5.75,US,1649513587
208,faya,18.3851,42.4509,75.72,27,0,10.76,SA,1649513587
209,talnakh,69.4865,88.3972,2.21,98,100,4.38,RU,1649513587
210,morant bay,17.8815,-76.4093,87.71,70,94,6.13,JM,1649513587
211,sarangani,5.4033,125.4636,82.92,82,54,22.77,PH,1649513587
212,lima,-12.0432,-77.0282,62.85,94,100,4.61,PE,1649513424
213,besikduzu,41.052,39.2284,55.29,70,13,9.22,TR,1649513587
214,smithville,39.3869,-94.5811,44.85,49,40,3.44,US,1649513587
215,gisborne,-38.6533,178.0042,51.15,88,6,6.13,NZ,1649513587
216,inhambane,-23.865,35.3833,77.09,62,100,18.1,MZ,1649513441
217,hungen,50.4737,8.8933,51.15,65,100,16.22,DE,1649513587
218,havre-saint-pierre,50.2334,-63.5986,32.83,99,100,10.54,CA,1649513587
219,imeni poliny osipenko,52.4201,136.4853,16.74,97,100,1.59,RU,1649513588
220,camacupa,-12.0167,17.4833,74.66,72,89,2.57,AO,1649513588
221,buy,58.4786,41.53,44.01,90,91,6.67,RU,1649513588
222,eureka,40.8021,-124.1637,44.26,83,8,4.0,US,1649513588
223,stokmarknes,68.5646,14.9108,40.98,56,0,9.22,NO,1649513588
224,ayan,56.45,138.1667,18.03,88,15,7.18,RU,1649513588
225,narsaq,60.9167,-46.05,35.82,45,2,1.19,GL,1649513588
226,kirakira,-10.4544,161.9205,79.39,81,67,6.26,SB,1649513588
227,namibe,-15.1961,12.1522,76.66,68,5,9.08,AO,1649513588
228,shetpe,44.1667,52.1167,59.25,51,100,19.73,KZ,1649513589
229,constitucion,-35.3333,-72.4167,58.69,70,100,1.07,CL,1649513589
230,taitung,22.7583,121.1444,72.48,79,46,7.34,TW,1649513589
231,sotouboua,8.5667,0.9833,101.53,28,91,3.15,TG,1649513589
232,vyatskiye polyany,56.226,51.0656,39.88,99,100,7.58,RU,1649513589
233,arraial do cabo,-22.9661,-42.0278,84.06,70,20,11.5,BR,1649513589
234,orland park,41.6303,-87.8539,38.86,70,40,13.8,US,1649513589
235,lasa,46.6166,10.7002,47.7,64,100,10.67,IT,1649513590
236,sungaipenuh,-2.0833,101.3833,66.13,96,100,0.4,ID,1649513590
237,dikson,73.5069,80.5464,9.59,95,100,4.59,RU,1649513590
238,pangnirtung,66.1451,-65.7125,10.4,79,100,8.05,CA,1649513590
239,barrhead,55.7992,-4.3929,51.06,51,100,15.01,GB,1649513590
240,walvis bay,-22.9575,14.5053,60.1,54,22,12.1,NA,1649513590
241,arrifes,37.7667,-25.7,59.25,67,40,28.77,PT,1649513590
242,sibu,2.3,111.8167,73.47,98,100,2.17,MY,1649513590
243,fairbanks,64.8378,-147.7164,-2.4,70,0,0.0,US,1649513590
244,tuatapere,-46.1333,167.6833,46.42,90,42,4.97,NZ,1649513590
245,tubuala,9.5167,-79.0333,78.15,92,100,15.03,PA,1649513590
246,kharan,28.5833,65.4167,93.36,5,2,11.61,PK,1649513590
247,calabozo,8.9242,-67.4293,88.3,44,51,12.57,VE,1649513591
248,kahului,20.8947,-156.47,74.84,77,0,8.99,US,1649513591
249,segezha,63.7415,34.3222,36.3,82,9,14.67,RU,1649513591
250,petropavlovsk-kamchatskiy,53.0452,158.6483,18.77,82,8,12.88,RU,1649513591
251,saint-francois,46.4154,3.9054,52.68,71,75,16.11,FR,1649513591
252,ambilobe,-13.2,49.05,79.97,86,100,1.68,MG,1649513591
253,waw,7.7029,27.9953,102.87,18,96,4.94,SS,1649513591
254,skelleftea,64.7507,20.9528,35.96,80,75,5.75,SE,1649513506
255,kruisfontein,-34.0033,24.7314,64.89,75,93,16.53,ZA,1649513592
256,caravelas,-17.7125,-39.2481,86.72,57,71,4.74,BR,1649513592
257,kashi,39.4547,75.9797,72.9,17,89,10.85,CN,1649513593
258,torbat-e jam,35.244,60.6225,82.31,10,90,8.37,IR,1649513450
259,upington,-28.4478,21.2561,68.67,65,100,17.45,ZA,1649513382
260,meulaboh,4.1363,96.1285,79.23,84,87,3.15,ID,1649513593
261,mae hong son,19.3003,97.9685,82.06,48,46,2.21,TH,1649513593
262,haines junction,60.7522,-137.5108,26.74,96,100,3.44,CA,1649513593
263,presidencia roque saenz pena,-26.7852,-60.4388,77.22,67,0,7.94,AR,1649513593
264,ilebo,-4.3167,20.5833,83.52,65,100,1.88,CD,1649513593
265,tamiahua,21.2667,-97.45,70.72,62,65,5.35,MX,1649513593
266,santa cruz de la palma,28.6835,-17.7642,68.14,60,20,4.61,ES,1649513593
267,turukhansk,65.8167,87.9833,8.83,97,100,6.71,RU,1649513593
268,bowen,-20.0167,148.2333,77.47,84,82,11.07,AU,1649513593
269,penaflor,-33.6167,-70.9167,68.07,64,25,3.09,CL,1649513594
270,kysyl-syr,63.8986,122.7617,8.78,97,92,3.78,RU,1649513594
271,wattegama,6.7989,81.4808,76.23,90,100,2.82,LK,1649513594
272,muros,42.7762,-9.0603,70.68,64,100,6.33,ES,1649513517
273,barra patuca,15.8,-84.2833,79.16,80,100,10.71,HN,1649513594
274,poum,-20.2333,164.0167,79.75,82,96,12.3,NC,1649513594
275,dunedin,-45.8742,170.5036,49.69,87,67,10.13,NZ,1649513594
276,shibetsu,43.659,145.132,40.12,85,13,6.62,JP,1649513594
277,tambopata,-12.7333,-69.1833,80.49,78,75,3.44,PE,1649513594
278,maxixe,-23.8597,35.3472,76.86,62,100,16.6,MZ,1649513595
279,gazanjyk,39.2446,55.5154,85.33,20,100,13.09,TM,1649513595
280,antalaha,-14.9003,50.2788,80.02,79,97,14.45,MG,1649513595
281,sol-iletsk,51.1631,54.9918,48.07,83,100,20.18,RU,1649513595
282,bosaso,11.2842,49.1816,83.23,68,100,7.2,SO,1649513595
283,pisco,-13.7,-76.2167,68.05,83,94,4.61,PE,1649513520
284,garbolovo,60.3413,30.4955,41.54,72,30,9.98,RU,1649513595
285,ojinaga,29.5667,-104.4167,59.95,25,0,0.0,MX,1649513595
286,derzhavinsk,51.1,66.3167,41.4,79,100,13.22,KZ,1649513595
287,humberto de campos,-2.5983,-43.4611,81.84,81,100,6.51,BR,1649513595
288,touros,-5.1989,-35.4608,87.31,60,21,16.51,BR,1649513596
289,marin,38.0666,-122.7344,51.26,77,0,12.66,US,1649513596
290,noumea,-22.2763,166.4572,81.0,99,63,12.41,NC,1649513596
291,saldanha,-33.0117,17.9442,71.26,42,0,13.71,ZA,1649513596
292,tiarei,-17.5333,-149.3333,78.82,80,100,17.94,PF,1649513596
293,quatre cocos,-20.2078,57.7625,80.1,78,13,12.1,MU,1649513596
294,bubaque,11.2833,-15.8333,76.23,75,72,7.7,GW,1649513596
295,sinop,41.7711,34.8709,65.48,41,60,7.07,TR,1649513596
296,havelock,34.8791,-76.9013,57.15,54,0,17.27,US,1649513596
297,codrington,-38.2667,141.9667,65.14,68,61,9.8,AU,1649513597
298,zdanice,49.0673,17.0275,48.18,52,100,16.78,CZ,1649513597
299,ust-shonosha,61.1531,41.343,40.62,94,100,5.14,RU,1649513597
300,kostomuksha,64.571,30.5767,34.52,81,80,14.18,RU,1649513597
301,pelym,61.0108,61.9978,34.38,95,100,7.25,RU,1649513597
302,krasnovishersk,60.4078,57.082,37.31,100,100,4.74,RU,1649513597
303,mpanda,-6.3655,31.0409,80.6,60,49,5.08,TZ,1649513597
304,itambacuri,-18.0311,-41.685,86.99,55,42,2.59,BR,1649513597
305,woodward,36.4337,-99.3904,54.63,28,0,18.41,US,1649513597
306,cayenne,4.9333,-52.3333,86.04,1,40,19.57,GF,1649513597
307,elko,41.0002,-115.5012,35.62,69,32,8.01,US,1649513597
308,caucasia,7.9865,-75.1935,80.44,83,99,4.29,CO,1649513598
309,baruun-urt,46.6806,113.2792,56.98,30,55,20.29,MN,1649513598
310,victor harbor,-35.5667,138.6167,66.63,57,56,6.51,AU,1649513598
311,vardo,70.3705,31.1107,35.69,97,100,27.42,NO,1649513598
312,coihaique,-45.5752,-72.0662,44.55,93,75,3.44,CL,1649513598
313,cooma,-36.2333,149.1333,56.97,100,100,8.05,AU,1649513598
314,carauari,-4.8828,-66.8958,83.32,74,97,3.44,BR,1649513598
315,trinidad,-14.8333,-64.9,87.78,66,40,4.61,BO,1649513599
316,ancud,-41.8697,-73.8203,52.23,94,100,7.16,CL,1649513599
317,thunder bay,48.4001,-89.3168,31.28,54,5,5.01,CA,1649513599
318,panacan,9.2463,118.4082,79.18,80,29,1.05,PH,1649513599
319,lynn haven,30.2455,-85.6483,57.04,44,0,16.11,US,1649513600
320,carnarvon,-24.8667,113.6333,73.47,68,0,19.57,AU,1649513600
321,aklavik,68.2191,-135.0107,2.01,81,30,17.56,CA,1649513600
322,karpathos,35.507,27.2132,64.36,77,75,5.75,GR,1649513600
323,keningau,5.3378,116.1602,71.35,99,100,2.33,MY,1649513600
324,numan,9.4667,12.0333,105.19,22,100,6.93,NG,1649513600
325,buraydah,26.326,43.975,95.07,7,0,17.78,SA,1649513600
326,bandarbeyla,9.4942,50.8122,82.62,71,100,10.11,SO,1649513600
327,berlevag,70.8578,29.0864,35.4,98,100,28.86,NO,1649513601
328,bethel,41.3712,-73.414,53.02,77,20,3.44,US,1649513601
329,westport,41.1415,-73.3579,55.44,87,100,3.0,US,1649513602
330,axim,4.8699,-2.2405,85.84,69,100,10.09,GH,1649513602
331,lishu,43.3047,124.3278,56.89,21,73,8.86,CN,1649513602
332,amuntai,-2.4177,115.2494,73.11,98,100,1.12,ID,1649513602
333,lagoa,39.05,-27.9833,56.08,71,100,34.83,PT,1649513602
334,phan thiet,10.9333,108.1,77.49,74,100,4.76,VN,1649513492
335,iralaya,15.0,-83.2333,81.25,69,100,12.17,HN,1649513602
336,san benedetto del tronto,42.9456,13.8816,72.88,56,94,3.36,IT,1649513400
337,itoman,26.1247,127.6694,72.37,85,20,13.8,JP,1649513602
338,usoke,-5.1667,32.35,82.56,49,67,4.34,TZ,1649513602
339,beisfjord,68.3751,17.5988,42.85,79,99,3.27,NO,1649513602
340,itacare,-14.2775,-38.9967,82.81,62,10,6.67,BR,1649513602
341,zhigansk,66.7697,123.3711,6.19,91,84,9.75,RU,1649513603
342,sept-iles,50.2001,-66.3821,33.06,97,100,10.36,CA,1649513603
343,aurora,39.7294,-104.8319,56.91,28,75,14.97,US,1649513603
344,abbeville,50.1,1.8333,53.26,60,29,13.69,FR,1649513368
345,zhoucheng,35.9122,116.3117,70.97,57,0,10.85,CN,1649513603
346,ponta do sol,32.6667,-17.1,68.72,65,24,5.41,PT,1649513603
347,krasnaya gora,52.9995,31.6023,44.94,90,100,16.58,RU,1649513603
348,sao felix do xingu,-6.6447,-51.995,79.99,90,98,1.05,BR,1649513603
349,aykhal,66.0,111.5,7.54,96,34,1.61,RU,1649513603
350,blagoyevo,63.3667,47.9167,41.38,98,100,12.55,RU,1649513603
351,tessalit,20.1986,1.0114,99.03,7,0,16.46,ML,1649513603
352,mackay,-21.15,149.2,77.68,85,65,17.92,AU,1649513604
353,makokou,0.5738,12.8642,80.02,82,90,4.83,GA,1649513604
354,suluq,31.6682,20.2521,75.74,22,82,9.73,LY,1649513604
355,mikhaylovka,50.06,43.2379,58.78,74,81,7.81,RU,1649513604
356,ballina,-28.8667,153.5667,66.02,99,79,7.65,AU,1649513604
357,dolores,-36.3132,-57.6792,71.83,68,16,7.05,AR,1649513604
358,shihezi,44.3,86.0333,66.13,33,99,5.14,CN,1649513604
359,zvishavane,-20.3267,30.0665,60.66,92,100,7.16,ZW,1649513604
360,saint-augustin,51.226,-58.6502,32.0,99,100,17.76,CA,1649513604
361,masyaf,35.0653,36.3406,66.16,53,0,8.77,SY,1649513605
362,bonito,-21.1211,-56.4819,84.27,62,100,6.51,BR,1649513605
363,rawson,-43.3002,-65.1023,62.65,73,58,22.19,AR,1649513605
364,hami,42.8,93.45,68.27,14,50,7.61,CN,1649513605
365,khuzhir,53.1939,107.3397,29.48,83,100,6.58,RU,1649513605
366,longyearbyen,78.2186,15.6401,24.64,68,20,11.5,SJ,1649513605
367,thohoyandou,-22.9456,30.485,72.34,54,100,10.02,ZA,1649513605
368,wanning,18.8003,110.3967,69.69,84,6,4.94,CN,1649513605
369,mongo,12.1844,18.693,108.27,6,43,9.44,TD,1649513605
370,mattawa,46.7379,-119.9028,42.26,58,0,3.0,US,1649513605
371,svetlogorsk,52.6333,29.7333,47.93,94,100,11.52,BY,1649513606
372,rayong,12.8333,101.4333,87.8,91,27,3.85,TH,1649513606
373,pagudpud,18.5616,120.7868,77.74,86,86,12.93,PH,1649513606
374,maldonado,-34.6667,-54.9167,74.59,55,0,4.43,UY,1649513606
375,pingdu,36.7844,119.9464,70.16,48,1,11.54,CN,1649513606
376,vacaria,-28.5122,-50.9339,66.16,81,76,2.75,BR,1649513606
377,sesheke,-17.4759,24.2968,77.76,54,100,8.14,ZM,1649513606
378,ternate,0.8,127.4,81.59,79,95,6.73,ID,1649513606
379,tiznit,29.5833,-9.5,82.45,12,0,2.95,MA,1649513606
380,tateyama,34.9833,139.8667,62.1,85,0,16.96,JP,1649513606
381,loralai,30.3705,68.598,82.63,8,1,4.92,PK,1649513606
382,fredericksburg,38.3032,-77.4605,54.01,57,0,8.05,US,1649513607
383,petauke,-14.2426,31.3253,72.63,77,71,7.72,ZM,1649513607
384,malatya,38.5,38.0,69.85,20,0,6.91,TR,1649513354
385,diffa,13.3154,12.6113,107.06,4,100,13.06,NE,1649513607
386,nemuro,43.3236,145.575,38.35,82,41,10.07,JP,1649513607
387,paamiut,61.994,-49.6678,25.25,62,0,11.79,GL,1649513607
388,ust-omchug,61.15,149.6333,2.3,97,96,2.98,RU,1649513607
389,ahuimanu,21.4447,-157.8378,73.36,78,20,12.66,US,1649513607
390,mercedes,-34.6515,-59.4307,74.64,51,0,7.02,AR,1649513607
391,atambua,-9.1061,124.8925,72.73,89,93,4.81,ID,1649513607
392,rio gallegos,-51.6226,-69.2181,44.65,100,100,8.05,AR,1649513608
393,taldan,53.6667,124.8,22.15,89,80,3.67,RU,1649513608
394,ulaanbaatar,47.9077,106.8832,32.13,69,20,13.42,MN,1649513608
395,kenora,49.8167,-94.4337,28.78,50,83,8.01,CA,1649513608
396,vila,42.0304,-8.1588,58.69,54,100,5.28,PT,1649513608
397,port lincoln,-34.7333,135.8667,68.02,70,18,7.47,AU,1649513608
398,baoshan,46.5586,131.4244,43.16,63,38,7.0,CN,1649513608
399,oga,46.4631,10.347,38.97,58,99,13.04,IT,1649513608
400,paka,4.6374,103.4368,78.33,86,59,2.51,MY,1649513608
401,ponoka,52.6768,-113.5815,36.88,59,97,23.53,CA,1649513609
402,lashio,22.9333,97.75,73.44,43,50,1.21,MM,1649513587
403,batemans bay,-35.7167,150.1833,65.1,95,65,3.85,AU,1649513609
404,tank,32.2217,70.3793,95.72,8,0,9.37,PK,1649513609
405,susanville,40.4163,-120.653,40.66,65,0,3.0,US,1649513609
406,dargaville,-35.9333,173.8833,58.91,82,78,2.53,NZ,1649513609
407,senanga,-16.1167,23.2667,75.6,69,84,6.71,ZM,1649513609
408,znamenskoye,57.1281,73.8282,27.57,84,7,4.25,RU,1649513609
409,oxford,51.7522,-1.256,55.18,44,20,11.5,GB,1649513312
410,newport,51.5877,-2.9984,54.07,59,100,13.33,GB,1649513514
411,tigil,57.8,158.6667,15.58,97,100,4.92,RU,1649513609
412,mehamn,71.0357,27.8492,35.6,98,100,29.73,NO,1649513609
413,heihe,50.2441,127.4902,39.4,95,100,5.03,CN,1649513610
414,lavrentiya,65.5833,-171.0,6.67,96,100,4.63,RU,1649513610
415,mamallapuram,12.6264,80.1722,86.05,78,100,11.61,IN,1649513610
416,yulara,-25.2406,130.9889,69.55,21,0,7.14,AU,1649513610
417,savannah bight,16.45,-85.85,79.45,74,49,15.03,HN,1649513610
418,rocha,-34.4833,-54.3333,76.87,55,0,3.42,UY,1649513610
419,marrakesh,31.6315,-8.0083,84.27,18,0,3.44,MA,1649513571
420,valdivia,-39.8142,-73.2459,48.29,98,88,1.79,CL,1649513430
421,cuamba,-14.8031,36.5372,79.39,69,35,2.55,MZ,1649513610
422,lata,40.1629,-8.3327,58.82,75,100,4.29,PT,1649513610
423,torres,-29.3353,-49.7269,76.82,82,82,4.52,BR,1649513611
424,tuim,54.3417,89.9261,29.17,72,97,9.75,RU,1649513563
425,dawlatabad,36.4141,64.9053,83.26,19,86,9.22,AF,1649513611
426,sisophon,13.5859,102.9737,85.62,35,89,6.69,KH,1649513611
427,trofors,65.5333,13.4063,39.07,92,100,4.09,NO,1649513611
428,terra santa,-2.1042,-56.4869,76.19,92,100,2.71,BR,1649513611
429,nema,57.5067,50.5011,40.62,97,100,8.7,RU,1649513612
430,makakilo city,21.3469,-158.0858,72.19,73,0,12.66,US,1649513612
431,melfi,40.9965,15.6514,58.89,64,100,17.34,IT,1649513612
432,verkh-usugli,52.7,115.1667,35.55,50,100,6.85,RU,1649513612
433,yumen,40.2833,97.2,64.74,11,86,10.54,CN,1649513612
434,houma,29.5958,-90.7195,60.01,68,0,3.0,US,1649513612
435,concarneau,47.875,-3.9225,53.89,53,71,8.95,FR,1649513612
436,port moresby,-9.4431,147.1797,76.86,90,99,2.62,PG,1649513612
437,tahta,26.7693,31.5021,92.43,8,100,15.08,EG,1649513613
438,riyadh,24.6877,46.7219,98.74,5,100,7.27,SA,1649513443
439,mount gambier,-37.8333,140.7667,59.16,74,6,5.23,AU,1649513613
440,carmo do cajuru,-20.1842,-44.7711,79.5,69,34,5.35,BR,1649513613
441,maracacume,-2.0428,-45.9592,75.09,98,100,0.98,BR,1649513614
442,olafsvik,64.8945,-23.7142,34.72,98,100,25.01,IS,1649513614
443,nome,64.5011,-165.4064,21.27,100,100,6.91,US,1649513614
444,arroyo,41.6096,-4.7969,62.6,47,20,1.14,ES,1649513614
445,san patricio,28.017,-97.5169,71.47,56,0,9.46,US,1649513614
446,adelaide,-34.9333,138.6,75.22,43,0,8.05,AU,1649513436
447,paracatu,-17.2222,-46.8747,86.23,45,17,4.94,BR,1649513345
448,venkatagiri,13.9667,79.5833,90.07,68,97,8.59,IN,1649513615
449,kurumkan,54.3,110.3,32.68,76,100,6.62,RU,1649513615
450,surt,31.2089,16.5887,70.14,45,86,15.32,LY,1649513615
451,sharjah,25.3573,55.4033,91.38,27,0,13.8,AE,1649513587
452,bonthe,7.5264,-12.505,85.14,68,100,10.85,SL,1649513615
453,robe,-37.1833,139.75,63.25,68,7,9.31,AU,1649513615
454,birin,26.8865,88.0718,61.48,76,5,4.56,NP,1649513615
455,beihai,21.4833,109.1,73.17,67,0,6.29,CN,1649513615
456,birjand,32.8663,59.2211,80.78,10,73,5.59,IR,1649513334
457,hualmay,-11.0964,-77.6139,70.32,78,93,6.89,PE,1649513615
458,sambava,-14.2667,50.1667,79.61,84,31,14.34,MG,1649513615
459,cabedelo,-6.9811,-34.8339,86.67,68,63,14.83,BR,1649513615
460,chake chake,-5.2459,39.7666,86.86,58,5,11.56,TZ,1649513616
461,hearst,49.6835,-83.6665,24.06,91,100,9.64,CA,1649513616
462,isangel,-19.55,169.2667,80.6,84,100,9.57,VU,1649513616
463,hay river,60.8156,-115.7999,24.42,87,100,17.92,CA,1649513616
464,ziniare,12.5822,-1.2983,107.35,13,11,4.0,BF,1649513616
465,ostrovnoy,68.0531,39.5131,36.14,99,100,19.37,RU,1649513616
466,uniontown,39.9001,-79.7164,41.67,54,100,3.0,US,1649513616
467,nacala,-14.5428,40.6728,82.38,67,2,8.95,MZ,1649513447
468,rio grande,-32.035,-52.0986,78.91,73,1,9.86,BR,1649513617
469,diapaga,12.0708,1.7889,109.0,13,54,4.36,BF,1649513617
470,oktyabrskiy,54.4815,53.471,40.82,94,100,6.06,RU,1649513617
471,bekobod,40.2208,69.2697,80.29,38,100,6.51,UZ,1649513620
472,chapais,49.7834,-74.8492,35.38,100,100,7.63,CA,1649513620
473,lorengau,-2.0226,147.2712,79.11,83,100,4.18,PG,1649513620
474,hunchun,42.8675,130.3581,52.81,60,100,3.06,CN,1649513620
475,kapit,2.0167,112.9333,73.62,99,100,1.03,MY,1649513620
476,burnie,-41.0667,145.9167,63.91,95,81,8.81,AU,1649513620
477,port hedland,-20.3167,118.5667,84.25,70,48,16.11,AU,1649513621
478,el naranjo,21.4667,-98.6,67.71,53,56,3.6,MX,1649513621
479,esso,55.9333,158.7,4.87,98,45,6.04,RU,1649513621
480,molepolole,-24.4066,25.4951,55.38,95,100,16.08,BW,1649513621
481,san quintin,30.4833,-115.95,64.22,62,9,2.04,MX,1649513621
482,vrangel,42.7297,133.0839,45.05,81,100,12.5,RU,1649513621
483,tamandare,-8.7597,-35.1047,83.14,75,69,9.78,BR,1649513621
484,camocim,-2.9022,-40.8411,85.19,69,45,11.65,BR,1649513621
485,port keats,-14.25,129.55,78.87,63,6,3.36,AU,1649513621
486,boa vista,2.8197,-60.6733,84.18,61,75,10.36,BR,1649513511
487,coquimbo,-29.9533,-71.3436,56.93,100,100,3.44,CL,1649513396
488,moron,-34.6534,-58.6198,76.01,77,0,4.68,AR,1649513622
489,roma,43.2128,-75.4557,44.51,93,100,8.01,US,1649513489
490,deputatskiy,69.3,139.9,-16.4,100,100,1.83,RU,1649513622
491,la ronge,55.1001,-105.2842,36.36,98,100,8.08,CA,1649513622
492,san cristobal,7.7669,-72.225,75.38,40,96,5.48,VE,1649513622
493,karratha,-20.7377,116.8463,85.59,45,6,12.28,AU,1649513622
494,finnsnes,69.2296,17.9811,41.61,72,99,3.38,NO,1649513622
495,sabha,27.0377,14.4283,91.45,10,85,5.93,LY,1649513622
496,ixtapa,20.7,-105.2,71.22,88,0,1.99,MX,1649513565
497,byron bay,-28.65,153.6167,65.95,83,70,7.18,AU,1649513622
498,lebyazhye,55.2689,66.4947,41.27,69,75,6.87,RU,1649513622
499,falam,22.9167,93.6833,64.71,43,0,3.49,MM,1649513622
500,ihosy,-22.4,46.1167,74.34,67,25,11.45,MG,1649513623
501,erenhot,43.6475,111.9767,65.05,19,48,18.23,CN,1649513623
502,sakakah,29.9697,40.2064,84.69,8,0,7.02,SA,1649513516
503,biga,40.2281,27.2422,72.36,42,0,5.99,TR,1649513623
504,ponta delgada,37.7333,-25.6667,61.52,67,40,28.77,PT,1649513623
505,conceicao da barra,-18.5933,-39.7322,87.44,55,61,4.23,BR,1649513623
506,port shepstone,-30.7414,30.455,66.13,87,100,19.44,ZA,1649513623
507,kyren,51.6828,102.1408,34.12,94,100,2.21,RU,1649513623
508,gwadar,25.1216,62.3254,84.29,58,86,15.93,PK,1649513623
509,mogadishu,2.0371,45.3438,83.28,70,72,14.25,SO,1649513433
510,gold coast,-28.0,153.4333,69.04,93,100,8.05,AU,1649513623
511,menongue,-14.6585,17.691,80.64,47,33,6.31,AO,1649513623
512,hambantota,6.1241,81.1185,80.28,80,100,11.99,LK,1649513624
513,yar-sale,66.8333,70.8333,5.0,95,100,2.59,RU,1649513624
514,vila velha,-20.3297,-40.2925,89.55,64,20,10.36,BR,1649513624
515,aden,12.7794,45.0367,82.85,71,0,10.85,YE,1649513624
516,murakami,38.2333,139.4833,52.57,62,0,5.39,JP,1649513624
517,omboue,-1.5746,9.2618,72.27,95,100,4.21,GA,1649513624
518,gamboma,-1.8764,15.8644,92.66,40,61,1.79,CG,1649513624
519,chyhyryn,49.0838,32.6555,66.07,45,99,20.18,UA,1649513624
520,pasaje,-3.3333,-79.8167,73.11,93,100,0.49,EC,1649513624
521,pentecoste,-3.7928,-39.2703,81.18,74,96,5.59,BR,1649513625
522,concepcion del uruguay,-32.4825,-58.2372,76.98,73,0,1.99,AR,1649513625
523,charters towers,-20.1,146.2667,70.88,88,5,10.6,AU,1649513625
524,waterloo,43.4668,-80.5164,36.54,93,100,10.36,CA,1649513625
525,maumere,-8.6199,122.2111,79.79,76,99,3.87,ID,1649513625
526,baglan,36.1307,68.7083,78.28,29,8,6.82,AF,1649513625
527,poya,-21.35,165.15,75.4,91,84,3.91,NC,1649513625
528,macon,39.8667,-88.9668,40.75,70,40,8.05,US,1649513625
529,takoradi,4.8845,-1.7554,87.96,65,99,13.58,GH,1649513625
530,udachnyy,66.4167,112.4,5.79,97,27,1.61,RU,1649513625
531,rongcheng,30.634,117.8517,68.27,55,100,3.91,CN,1649513626
532,de aar,-30.6497,24.0123,66.11,50,100,14.79,ZA,1649513626
533,camalu,30.85,-116.0667,66.07,46,24,1.41,MX,1649513626
534,ust-kuyga,70.0167,135.6,-2.38,97,100,5.61,RU,1649513626
535,goderich,43.7501,-81.7165,33.91,78,100,11.54,CA,1649513626
536,general roca,-39.0333,-67.5833,66.13,77,100,9.01,AR,1649513626
537,manadhoo,5.7667,73.3833,84.81,71,100,11.07,MV,1649513626
538,zyryanka,65.75,150.85,-14.82,99,87,11.86,RU,1649513626
539,puerto suarez,-18.95,-57.8,86.56,69,0,5.75,BO,1649513626
540,japura,-0.3167,102.35,75.7,90,100,2.91,ID,1649513626
541,marbella,36.5154,-4.8858,75.07,47,13,7.2,ES,1649513505
542,richards bay,-28.783,32.0377,67.1,85,100,6.42,ZA,1649513626
543,namatanai,-3.6667,152.4333,79.21,82,98,4.81,PG,1649513626
544,beloha,-25.1667,45.05,79.38,65,60,17.0,MG,1649513627
545,mecca,21.4267,39.8261,96.44,16,0,18.43,SA,1649513433
546,guerrero negro,27.9769,-114.0611,65.16,57,12,8.86,MX,1649513627
547,kaa-khem,51.6833,94.7333,36.16,52,77,7.07,RU,1649513627
548,nefteyugansk,61.0998,72.6035,8.87,90,18,3.36,RU,1649513627
549,kankon,15.0167,74.0167,83.21,78,100,7.61,IN,1649513627
550,ippy,6.2679,21.2247,102.78,17,54,5.68,CF,1649513627
551,benjamin constant,-4.3831,-70.0311,82.53,83,75,0.0,BR,1649513627
552,prince rupert,54.3161,-130.3201,34.41,81,98,1.77,CA,1649513627
553,kuytun,54.3419,101.5036,30.06,78,100,10.16,RU,1649513628
554,grand-lahou,5.1367,-5.0242,86.4,69,50,10.78,CI,1649513628
555,sterling,39.0062,-77.4286,52.21,67,75,10.36,US,1649513628
556,kavaratti,10.5669,72.642,84.27,75,93,9.15,IN,1649513628
557,kokopo,-4.352,152.2633,78.82,81,32,6.15,PG,1649513628
